name,cat,pop_2011,lon,lat
Andorra la Vella,"1","26854",1.52269,42.50618
Encamp-Bordes de Rigoder,"1","18173",1.58410,42.53465
La Massana,"1","6054",1.51577,42.54254
Sant Julià de Lòria,"1","5959",1.49644,42.46378
Tiranë,"2","578626",19.80099,41.34389
Durrës,"2","108297",19.46756,41.32132
Vlorë,"2","73944",19.48668,40.46280
Elbasan,"2","72812",20.07969,41.11411
Shkodra,"2","72360",19.50999,42.06933
Korçë,"1","47874",20.78050,40.61773
Fier,"1","47477",19.55945,40.72596
Berat,"1","33139",19.95037,40.70537
Pogradec,"1","29909",20.66331,40.89556
Lushnja,"1","24186",19.70408,40.94031
Kavajë,"1","17768",19.55799,41.18560
Lezhë,"1","17471",19.64422,41.78074
Sarandë,"1","15407",20.00777,39.87277
Gjirokastër,"1","15330",20.13996,40.07773
Kukës,"1","13685",20.42357,42.07838
Dibër,"1","12325",20.43268,41.68462
Libonik,"1","11682",20.71940,40.68301
Kuçovë,"1","11618",19.91718,40.80169
Mat,"1","10568",20.00936,41.60982
Rrogozhinë,"1","9603",19.63854,41.09030
Shijak,"1","9053",19.56181,41.34469
Laç,"1","8783",19.71389,41.63608
Prrenjas,"1","8594",20.56574,41.07737
Patos,"1","8153",19.62469,40.68060
Fushë-Krujë,"1","8070",19.72289,41.47757
Kruje,"1","7898",19.79031,41.51035
Tërbuf,"1","7758",19.63525,41.05076
Vau i Dejës,"1","7743",19.62116,41.99897
Roskovec,"1","7596",19.69589,40.72949
Allkaj / Fier-Shegan,"1","7428",19.76656,40.86681
Gramsh,"1","7333",20.18373,40.86551
Devoll,"1","6496",20.98535,40.62582
Frakull,"1","6342",19.51456,40.64170
Mallakastër,"1","6129",19.73648,40.59677
Tropojë,"1","6107",20.07441,42.36237
Maqellarë,"1","6021",20.48480,41.58260
Bulqizë,"1","5890",20.21626,41.49930
Librazhd,"1","5797",20.31919,41.17918
Përmet,"1","5663",20.35805,40.23552
Peqin,"1","5475",19.75105,41.04728
Wien,"2","1686260",16.35901,48.20164
Graz,"2","218869",15.43467,47.07101
Linz,"2","194405",14.29021,48.28440
Salzburg,"2","132226",13.04208,47.80475
Innsbruck,"2","113111",11.39976,47.26793
Klagenfurt am Wörthersee,"2","66998",14.30903,46.62488
Wels,"2","50980",14.02377,48.16365
Bregenz,"2","50469",9.72119,47.48644
Dornbirn,"1","35807",9.74059,47.41452
Villach,"1","33731",13.84389,46.61301
Steyr,"1","32590",14.42428,48.04317
Wiener Neustadt,"1","30933",16.24179,47.82064
Baden,"1","27163",16.24233,48.00438
St. Pölten,"1","27138",15.63077,48.20342
Kaiserebersdorf,"1","27097",16.46050,48.15887
Lustenau,"1","21807",9.65633,47.43357
Feldkirch,"1","20546",9.58818,47.24810
Hall in Tirol,"1","18912",11.51452,47.28925
Lienz,"1","18433",12.78765,46.82877
Kufstein,"1","16111",12.17031,47.58556
Eisenstadt,"1","15374",16.50802,47.84255
Bad Vöslau-Kottingbrunn,"1","15163",16.21968,47.95058
Gratwein-Gratkorn,"1","14955",15.33045,47.12872
Amstetten,"1","14888",14.86804,48.11756
Hohenems,"1","14315",9.66932,47.35910
Schwaz,"1","13537",11.70210,47.34539
Voitsberg,"1","13491",15.13740,47.05964
Krems an der Donau,"1","13168",15.60007,48.41040
Telfs,"1","13066",11.07491,47.31228
Hallein,"1","13014",13.10132,47.68738
Mattersburg,"1","12964",16.42376,47.73881
Waidhofen an der Ybbs,"1","12762",14.76650,47.98381
Schwechat,"1","12746",16.47009,48.13544
St. Georgen an der Gusen-Mauthausen,"1","12696",14.46434,48.26131
Leoben,"1","12689",15.10335,47.38136
Essling,"1","12659",16.52310,48.21174
Rankweil,"1","12560",9.64775,47.28852
Reutte,"1","11691",10.71296,47.48598
Traun,"1","11445",14.23796,48.22469
Strasshof an der Nordbahn,"1","11258",16.66247,48.31307
Wattens,"1","11140",11.58330,47.29557
Landeck,"1","10836",10.56722,47.14758
Bad Ischl,"1","10817",13.60517,47.71183
Trofaiach,"1","10748",15.00740,47.41731
Brixlegg-Kramsach,"1","10519",11.88677,47.43403
Fulpmes,"1","10489",11.33967,47.13800
Tulln an der Donau,"1","10384",16.06027,48.32748
Berndorf,"1","10380",16.11164,47.94447
Köflach,"1","9803",15.07449,47.05870
Mattighofen,"1","9622",13.15697,48.09560
Langenlois,"1","9554",15.70469,48.46536
Korneuburg,"1","9484",16.33114,48.34687
Schärding,"1","9288",13.44144,48.46509
Stadl-Paura-Lambach,"1","9282",13.87757,48.08864
Ebreichsdorf,"1","9031",16.41636,47.95906
Wörgl,"1","8941",12.06895,47.48849
Wolkersdorf im Weinviertel,"1","8892",16.52305,48.38337
Judenburg,"1","8856",14.65312,47.17049
Bruck an der Leitha,"1","8824",16.77942,48.02494
Mayrhofen,"1","8730",11.86962,47.19679
St. Johann in Tirol,"1","8719",12.42988,47.53344
Knittelfeld,"1","8662",14.82080,47.21512
Zell am See,"1","8616",12.79854,47.31747
Gmünd,"1","8574",14.96976,48.76396
Neusiedl am See,"1","8517",16.85115,47.94261
Erlauf,"1","8510",15.18055,48.20659
St.Andrä-Wördern,"1","8491",16.19261,48.33066
Braunau am Inn,"1","8475",13.04084,48.25516
Höchst,"1","8420",9.63553,47.46025
Ebelsberg-Wambach,"1","8401",14.33353,48.23900
Deutschlandsberg,"1","8379",15.23550,46.82214
Bludenz,"1","8203",9.82872,47.15243
Kirchdorf-Micheldorf,"1","8191",14.12720,47.89454
Sierning,"1","8136",14.32550,48.03994
Traiskirchen,"1","8105",16.29271,48.02120
Stockerau,"1","7994",16.21642,48.38647
Feldkirchen in Kärnten,"1","7947",14.10005,46.71624
Ansfelden-Haid,"1","7913",14.25199,48.20463
Gleisdorf,"1","7839",15.71140,47.10794
Götzis,"1","7687",9.64083,47.33350
Deutsch-Wagram,"1","7610",16.57735,48.30916
St. Veit an der Glan,"1","7563",14.36028,46.76582
Saalfelden am Steinernen Meer,"1","7506",12.84175,47.42606
Hollabrunn,"1","7493",16.08120,48.55637
Bruck an der Mur,"1","7458",15.26133,47.40810
Ottensheim,"1","7449",14.16003,48.34778
Guntramsdorf,"1","7272",16.31720,48.05589
Leibnitz,"1","7243",15.54676,46.78491
Wolfsberg,"1","7218",14.83935,46.83254
Pregarten-Wartberg-Hagenberg,"1","7191",14.51854,48.35262
Feldbach,"1","7098",15.89182,46.95048
Freistadt,"1","7075",14.50619,48.51140
Mistelbach,"1","7001",16.57481,48.56838
Zeltweg,"1","6962",14.75044,47.19268
Perg,"1","6906",14.62771,48.24245
Ried im Innkreis,"1","6854",13.48725,48.21495
Weiz,"1","6778",15.62777,47.21533
Ebensee am Traunsee,"1","6700",13.76624,47.80043
Eferding,"1","6674",14.01923,48.30569
Vöcklabruck,"1","6621",13.65597,48.00233
Neunkirchen,"1","6612",16.08513,47.72911
Schwanenstadt,"1","6602",13.77430,48.05313
Grieskirchen,"1","6550",13.82994,48.23461
Ybbs an der Donau,"1","6467",15.08440,48.17989
Enns,"1","6467",14.47079,48.21550
Mauer bei Amstetten / Hausmening,"1","6426",14.81019,48.08705
Mürzzuschlag,"1","6394",15.67918,47.60511
Sankt Johann im Pongau,"1","6381",13.20365,47.34696
Kitzbühel,"1","6377",12.39621,47.44078
Zirl,"1","6368",11.24360,47.27297
Fohnsdorf,"1","6252",14.68049,47.19873
Gmunden,"1","6240",13.80157,47.91632
Gänserndorf,"1","6204",16.71871,48.34126
Bürmoos,"1","6141",12.93243,47.98970
Hartberg,"1","6078",15.97068,47.28122
Neumarkt am Wallersee / Köstendorf,"1","6061",13.21211,47.94603
Marchtrenk,"1","6004",14.10988,48.19651
Pinkafeld,"1","5987",16.12488,47.36626
Wieselburg,"1","5984",15.13879,48.12741
Neufeld an der Leitha,"1","5956",16.37285,47.87088
Oberwart,"1","5925",16.20768,47.28958
Neulengbach,"1","5921",15.91118,48.19574
Schruns,"1","5914",9.90790,47.08050
Imst,"1","5911",10.74124,47.23855
Klosterneuburg,"1","5882",16.31506,48.30869
Gloggnitz,"1","5860",15.94744,47.67309
Herzogenburg,"1","5860",15.69672,48.28306
Spittal an der Drau,"1","5782",13.50163,46.78963
Bischofshofen,"1","5771",13.21259,47.42026
Lanzenkirchen / Bad Erlach,"1","5754",16.22286,47.73739
Horn,"1","5733",15.64937,48.66940
Bad Hall,"1","5714",14.20791,48.03321
Pressbaum-Tullnerbach,"1","5671",16.07863,48.18062
Kundl,"1","5591",11.98228,47.47724
Liezen,"1","5519",14.23941,47.56986
Tiefgraben,"1","5464",13.33831,47.85333
Fügen,"1","5392",11.84985,47.33397
Jenbach,"1","5386",11.77389,47.39466
Bad Goisern am Hallstättersee,"1","5345",13.62955,47.63088
Hainburg a.d.Donau,"1","5323",16.94893,48.14415
Schwarzach im Pongau,"1","5278",13.14853,47.32575
Gallneukirchen,"1","5265",14.41540,48.35289
Seiersberg-Pirka,"1","5195",15.43077,47.01788
Traismauer,"1","5087",15.73297,48.35217
Fürstenfeld,"1","5074",16.07570,47.04522
Schwadorf / Enzersdorf an der Fischa,"1","5060",16.58625,48.07438
Ternitz,"1","5039",16.01553,47.70589
Wilhelmsburg,"1","5028",15.60421,48.09905
Sarajevo,"2","343031",18.36308,43.84853
Banja Luka,"2","147756",17.20421,44.78958
Mostar,"2","70863",17.81391,43.33766
Tuzla,"2","69820",18.68186,44.53886
Zenica,"2","64204",17.92308,44.19957
Bijeljina,"1","40760",19.21234,44.75675
Brčko-Dizdaruša,"1","35899",18.80572,44.86629
Bihać-Centar,"1","33360",15.87099,44.81519
Prijedor,"1","31274",16.71983,44.98056
Gornje Dubrave / Rainci Gornji / Kalesija,"1","29505",18.79510,44.46458
Doboj-Usora,"1","22957",18.08264,44.72603
Trebinje,"1","21938",18.34943,42.71435
Modriča,"1","18313",18.29801,44.96048
Bardaci,"1","16713",17.84934,44.59564
Zagrad,"1","15330",15.82465,45.16444
Stara Gradiška,"1","14868",17.25882,45.14281
Sanski Most-Muhići,"1","14468",16.66321,44.76491
Slivnice-Povezice,"1","14321",18.11566,44.12925
Pirota,"1","13415",17.65192,44.22623
Lukavac-Turski Lukavac,"1","12802",18.52859,44.53821
Bugojno,"1","12277",17.44632,44.05655
Ljubuški-Baščina,"1","11922",17.51291,43.21304
Foča-Foca,"1","11520",18.77749,43.50494
Gračanica,"1","11425",18.30702,44.69931
Козарац / Kozarac,"1","11402",16.83782,44.97065
Mali Zvornik,"1","11392",19.09880,44.38548
Ozrakovići,"1","11381",18.17744,43.99118
Goražde-Vinarići,"1","10939",18.97857,43.66589
Priluk,"1","10780",18.53825,44.47171
Pale-Koran,"1","10647",18.57024,43.81191
Livno-Žabljak,"1","10415",17.00602,43.82401
Hrvatska Dubica,"1","9972",16.81238,45.17803
Puškari,"1","9356",15.92212,44.96321
Kupusnica,"1","9249",16.02392,45.07423
Krivoglavci,"1","8900",18.33966,43.90114
Gradačac-Požarike,"1","8875",18.42206,44.88211
Potkleče,"1","8788",18.14332,44.43931
Zivinice,"1","8659",18.65688,44.43998
Konjic,"1","8590",17.96108,43.65025
Orahovica-Ćofine žrtve,"1","8544",18.05111,44.42688
Carica-Luka,"1","8221",17.89875,44.08538
Posušje,"1","8127",17.32571,43.47007
Dẑakići,"1","7967",19.01423,44.50065
Derventa-Ukrina,"1","7908",17.90422,44.98296
Daljan,"1","7829",17.39812,44.13736
Šamac,"1","7745",18.47297,45.06319
Nevesinje,"1","7649",18.12064,43.25705
Kiseljak,"1","7587",18.06570,43.96170
Mrkonjić Grad-Kasimovac,"1","7521",17.08536,44.41589
Dvor,"1","7477",16.38236,45.04462
Klašnice,"1","7452",17.30135,44.89509
Rapatnica-Bare,"1","7294",18.48255,44.70810
Janja,"1","7281",19.24533,44.66272
Isakovići,"1","7234",17.65090,44.17198
Bosanska Krupa,"1","7234",16.15042,44.88376
Vučine,"1","7010",19.29518,43.78587
Široki Brijeg,"1","6929",17.59417,43.38217
Davor / Srbac,"1","6811",17.52040,45.09959
Bileća-Bileca,"1","6747",18.42906,42.87224
Hanke,"1","6708",18.52144,44.40740
Čelinac Gornji,"1","6683",17.32463,44.72053
Ključ-Pervici,"1","6297",16.76024,44.54009
Okolica-Jug II,"1","6260",17.65712,44.86860
Jajce-Stari grad,"1","6202",17.27138,44.34419
Šipovo,"1","6153",17.08633,44.28281
Bratunac-Danići,"1","6150",19.33073,44.18339
Odžak,"1","6071",18.32464,45.01069
Previle / Tinja Gornja,"1","6064",18.56947,44.62999
Vlasenica,"1","6001",18.94467,44.18280
Kostajnica,"1","5896",16.54301,45.22003
Bulbulušići,"1","5802",18.26244,44.01611
Hadžići,"1","5798",18.20322,43.82148
Maglaj,"1","5755",18.10030,44.54986
Tomislavgrad,"1","5729",17.22732,43.71664
Ilijaš-Gornja Misoča,"1","5675",18.26706,43.96137
Topovina-Krajšina,"1","5624",17.94769,43.08033
Sokolac-Đurkovića Brdo,"1","5605",18.79787,43.93851
Čapljina-Brajkovići,"1","5544",17.70306,43.11275
Gacko,"1","5493",18.53480,43.16696
Zlate,"1","5252",17.75727,43.66135
Kotlanice-Kantića Gaj,"1","5155",17.98287,44.61329
Gornji Vakuf-Uskoplje-Košute,"1","5143",17.58261,43.94158
Котор Варош-Donja Varosh,"1","5140",17.37679,44.62183
Rogatica-Zaganovići,"1","5073",19.00569,43.79959
Teočak,"1","5070",18.99669,44.60294
Gracanica & Ulica Tupkovici,"1","5035",18.76639,44.39942
Bruxelles / Brussel,"2","1241750",4.35960,50.84644
Antwerpen,"2","555063",4.43192,51.19209
Liège,"2","361543",5.56613,50.62903
Gent,"2","216134",3.73089,51.05276
Charleroi,"2","209647",4.46118,50.41551
Brugge,"2","92630",3.22634,51.20550
Oostende,"2","77679",2.92267,51.22284
Quaregnon / Frameries,"2","74361",3.87236,50.42521
Leuven,"2","70414",4.70954,50.87636
Mechelen,"2","65993",4.48853,51.02255
Kortrijk / Kuurne / Harelbeke,"2","65652",3.28109,50.84191
Namur,"2","62609",4.85765,50.46180
La Louvière,"2","56089",4.18663,50.47871
Verviers,"2","54758",5.86607,50.59096
Kapellen / Ekeren,"2","52852",4.42806,51.29409
Waterloo / Braine-l'Alleud,"1","44889",4.38424,50.69928
Aalst,"1","44118",4.04968,50.94002
Roeselare,"1","40551",3.12574,50.94671
Hemiksem / Niel / Boom,"1","39851",4.35382,51.11290
Sint-Niklaas,"1","39652",4.14470,51.16750
Turnhout,"1","36192",4.94822,51.31905
Vilvoorde,"1","35023",4.43017,50.92409
Menen / Halluin,"1","32225",3.12152,50.79217
Tournai,"1","28509",3.38820,50.61024
Hasselt,"1","26480",5.33621,50.92830
Beveren,"1","24287",4.25986,51.21586
Mons,"1","24115",3.95145,50.45646
Knokke-Heist,"1","23953",3.27011,51.34310
Izegem,"1","22431",3.21907,50.92024
Brasschaat,"1","22098",4.49689,51.30041
Genk,"1","21191",5.48823,50.96591
Lier,"1","20980",4.56970,51.13765
Denderleeuw / Liedekerke,"1","20070",4.07060,50.88411
Nivelles,"1","19570",4.32514,50.59724
Dendermonde,"1","19328",4.10227,51.02770
Lokeren,"1","19017",3.99131,51.10162
Schoten,"1","18671",4.50574,51.25328
Maasmechelen,"1","17069",5.68819,50.97539
Wevelgem / Lauwe,"1","17041",3.17749,50.80655
Retie / Dessel,"1","16938",5.10646,51.25874
Ieper,"1","16434",2.88403,50.85213
Tienen,"1","16191",4.93553,50.80742
Blankenberge,"1","16142",3.12844,51.31317
Ronse,"1","16141",3.60316,50.74717
Avelgem-Outrijve,"1","16022",3.44907,50.77216
Halle,"1","15606",4.24441,50.73022
Sint-Truiden,"1","15475",5.18463,50.81479
Wavre,"1","15300",4.61643,50.71638
Torhout,"1","14892",3.10664,51.07050
Willebroek,"1","14778",4.35794,51.06026
Waterschei / Zwartberg,"1","14686",5.50385,51.00568
Blaton,"1","14678",3.66464,50.50387
Zwijndrecht-Burcht,"1","14186",4.33377,51.21048
Huy,"1","14151",5.23936,50.52467
Waregem,"1","13656",3.43150,50.88783
Herentals,"1","13518",4.83742,51.17840
Temse,"1","13512",4.21193,51.12876
Tongeren,"1","13136",5.46665,50.78119
Tubize,"1","12275",4.20952,50.69062
Ninove,"1","12227",4.02375,50.83256
Arlon,"1","12019",5.81317,49.68422
Beerse / Vosselaar,"1","11686",4.87476,51.31516
Eeklo,"1","11527",3.56881,51.18414
Rijkevorsel / Sint-Jozef-Rijkevorsel / Vlimmeren,"1","11188",4.77180,51.32929
Aalter,"1","11029",3.46146,51.08870
Wervik / Wervicq-Sud,"1","10976",3.04431,50.77941
Oupeye,"1","10960",5.63962,50.70413
Tielt,"1","10627",3.32451,50.99625
Geel,"1","10594",4.98813,51.16624
Landen,"1","10564",5.08009,50.74668
Hamme,"1","10471",4.13697,51.09255
Courcelles,"1","10197",4.37878,50.45794
Zaventem,"1","10190",4.47349,50.88382
Morlanwelz,"1","10161",4.24913,50.44925
Geraardsbergen,"1","10147",3.87167,50.77003
Duffel,"1","10016",4.50553,51.09484
Eupen,"1","9968",6.04073,50.62861
Zele,"1","9852",4.03212,51.06316
Lille,"1","9844",4.81496,51.24851
Marche-en-Famenne,"1","9811",5.33309,50.20883
Sprimont / Aywaille,"1","9714",5.66045,50.48785
Hoogstraten,"1","9704",4.76257,51.40876
Deinze,"1","9610",3.52973,50.97680
Mol,"1","9540",5.11132,51.18725
Dinant,"1","9384",4.91358,50.25684
Zandvliet / Berendrecht,"1","9383",4.31602,51.35379
Poperinge,"1","9321",2.72961,50.85474
Waremme,"1","9147",5.25484,50.69792
Zelzate,"1","8884",3.80736,51.19937
Wetteren,"1","8767",3.88279,51.00128
Ecaussinnes,"1","8763",4.16864,50.56036
Quiévrain / Quiévrechain,"1","8759",3.67613,50.40100
Sint-Genesius-Rode-Alsemberg,"1","8647",4.35135,50.74498
Lommel,"1","8488",5.30779,51.22911
Oudenaarde,"1","8459",3.60474,50.84796
Genval,"1","8451",4.49207,50.72702
Brecht,"1","8388",4.65939,51.34602
Ottignies,"1","8387",4.56596,50.67196
Gembloux,"1","8342",4.69209,50.56073
Thuin,"1","8250",4.28245,50.34932
Louvain-la-Neuve,"1","8240",4.61234,50.66964
Binche,"1","8107",4.16661,50.41203
Aartselaar,"1","8100",4.38589,51.13642
Lebbeke,"1","7963",4.13880,50.99350
Dadizele-Ledegem,"1","7868",3.11919,50.85609
Houthalen,"1","7806",5.38541,51.02739
Veurne,"1","7730",2.66881,51.07355
Soignies,"1","7707",4.06568,50.57812
Sint-Job-in-'t-Goor,"1","7679",4.57463,51.29855
Chapelle-lez-Herlaimont,"1","7666",4.27702,50.47168
Kasterlee,"1","7640",4.90559,51.23195
Lanaken,"1","7591",5.64798,50.89351
Nalinnes / Somzée / Laneffe / Fraire,"1","7590",4.48096,50.29905
Braine-le-Comte,"1","7575",4.13722,50.61034
Rixensart,"1","7571",4.53655,50.71112
Welkenraedt,"1","7558",5.97432,50.66006
Andenne,"1","7519",5.09407,50.49454
Essen,"1","7437",4.45444,51.45958
Lichtervelde,"1","7429",3.13159,51.02725
Nijlen,"1","7362",4.66971,51.16106
Diest,"1","7329",5.05715,50.97932
Herenthout,"1","7217",4.76064,51.13893
Rochefort,"1","7151",5.23752,50.16234
Estinnes,"1","7056",4.08701,50.41560
Berlaar,"1","6845",4.64665,51.11270
Aarschot,"1","6842",4.83728,50.98773
Koksijde,"1","6813",2.62720,51.11680
Kalmthout,"1","6797",4.47084,51.38377
Gosselies,"1","6761",4.43066,50.46723
De Panne,"1","6649",2.59061,51.09867
Musson / Gorcy,"1","6587",5.70521,49.55184
Visé,"1","6569",5.68384,50.73731
Hannut,"1","6542",5.07121,50.66769
Zwevegem,"1","6515",3.33771,50.81179
Virton,"1","6504",5.53532,49.56101
Leopoldsburg,"1","6498",5.25688,51.11974
Villers-la-Ville,"1","6485",4.54379,50.56487
Kortessem,"1","6471",5.41111,50.85208
Heist-op-den-Berg,"1","6439",4.71742,51.07841
Zottegem,"1","6303",3.81236,50.86830
Ichtegem / Wijnendale,"1","6271",3.04063,51.09199
Leuze-en-Hainaut,"1","6237",3.62024,50.59450
Kortemark-Handzame,"1","6211",3.02763,51.02835
Kasterlee,"1","6166",4.97621,51.24260
Ath,"1","6151",3.78036,50.62764
Enghien,"1","6130",4.03678,50.69381
Genappe,"1","6128",4.44504,50.59973
Brakel,"1","6069",3.76126,50.80114
Bree,"1","6048",5.59829,51.14220
Herent,"1","6013",4.67534,50.90532
Gullegem,"1","6008",3.21469,50.84070
Ciney,"1","5983",5.10084,50.29367
Bastogne,"1","5971",5.71774,50.00331
Merchtem,"1","5962",4.23124,50.95909
Diksmuide,"1","5930",2.86896,51.03191
Lessines,"1","5925",3.83099,50.71001
Perwez,"1","5861",4.78954,50.63276
Bornem,"1","5776",4.24018,51.09773
Malmedy,"1","5764",6.02274,50.42321
Gooreind,"1","5750",4.54385,51.35567
Grimbergen,"1","5735",4.37212,50.93599
Sambreville,"1","5703",4.63349,50.44387
Wijnegem,"1","5696",4.51115,51.22800
Meerhout,"1","5680",5.08138,51.13195
Beernem,"1","5641",3.33069,51.13191
Asse,"1","5604",4.19919,50.91092
Spa,"1","5574",5.86871,50.49203
Eksel-Wijchmaal,"1","5559",5.40222,51.14575
Wanfercée-Baulet,"1","5521",4.58358,50.46856
Kruibeke,"1","5431",4.31021,51.16877
Ichtegem,"1","5364",3.02630,51.12873
Jodoigne,"1","5350",4.86930,50.73273
Neerpelt,"1","5320",5.44201,51.22620
Lede,"1","5248",3.98490,50.96757
Zonnebeke,"1","5227",3.00233,50.88214
Baarle-Hertog,"1","5205",4.92870,51.44512
Kelmis (La Calamine),"1","5185",6.01192,50.71762
Wuustwezel,"1","5172",4.58826,51.39018
Pecq,"1","5106",3.33284,50.69003
Zomergem,"1","5100",3.55837,51.12194
Dour,"1","5098",3.78188,50.40229
Peer,"1","5096",5.46083,51.13240
Arendonk,"1","5087",5.08728,51.32282
Theux,"1","5079",5.81760,50.53391
Houthulst,"1","5052",2.93627,50.97781
Sofia,"2","1147110",23.32018,42.68714
Plovdiv,"2","321400",24.75493,42.14176
Varna,"2","281835",27.89763,43.22435
Ruse,"2","138520",25.96809,43.84188
Burgas,"2","130091",27.46415,42.51070
Stara Zagora,"2","122846",25.62110,42.42367
Pleven,"2","102615",24.61811,43.41340
Dobrich,"2","85641",27.83276,43.56818
Sliven,"2","83467",26.33175,42.67713
Yambol,"2","72050",26.51086,42.48302
Shumen,"2","70912",26.93167,43.27337
Haskovo,"2","70507",25.55145,41.93458
Pazardzhik,"2","67961",24.33101,42.19113
Veliko Tarnovo,"2","64841",25.61942,43.07851
Blagoevgrad,"2","63493",23.09781,42.00751
Vratsa,"2","57390",23.55237,43.20826
Asenovgrad,"1","45626",24.87593,42.01252
Kazanlak,"1","41209",25.39768,42.62271
Meden Rudnik,"1","40487",27.41382,42.45539
Vidin,"1","40204",22.87493,43.99244
Kardzhali,"1","39942",25.36973,41.63591
Gabrovo,"1","39913",25.31479,42.87815
Montana,"1","38017",23.22192,43.40832
Kyustendil,"1","37577",22.68772,42.28169
Pernik,"1","37555",23.03787,42.60425
Silistra,"1","33736",27.26853,44.11379
Razgrad,"1","32413",26.52647,43.52437
Lovech,"1","31395",24.71371,43.14384
Targovishte,"1","31248",26.56595,43.24583
Dupnitsa,"1","30177",23.11889,42.26210
Svishtov,"1","28728",25.35320,43.61435
Gorna Oryahovitsa,"1","27384",25.69747,43.13061
Petrich,"1","27119",23.20775,41.39795
Pernik,"1","26877",23.10473,42.60393
Samokov,"1","23492",23.55867,42.33646
Sandanski,"1","22765",23.28045,41.56039
Dimitrovgrad,"1","22587",25.59356,42.05862
Smolyan,"1","20395",24.71003,41.57634
Nova Zagora,"1","17827",26.00747,42.49205
Sevlievo,"1","17740",25.10147,43.02700
Asparuhovo,"1","17658",27.89126,43.18112
Aytos,"1","16595",27.24973,42.70226
Karlovo,"1","16228",24.80634,42.63932
Harmanli,"1","15713",25.90981,41.92219
Gotse Delchev,"1","15176",23.72951,41.57001
Lom,"1","14950",23.23462,43.82141
Peshtera,"1","14205",24.30835,42.03509
Velingrad,"1","13923",23.98964,42.02852
Troyan,"1","13485",24.70967,42.88801
Radomir,"1","13373",22.96940,42.53626
Pomorie,"1","13108",27.62928,42.56381
Karnobat,"1","13041",26.98128,42.64850
Panagyurishte,"1","12953",24.18682,42.50551
Kozloduy,"1","12823",23.71848,43.78105
Kostinbrod,"1","12446",23.20469,42.81896
Chirpan,"1","11566",25.33487,42.19997
Razlog,"1","11213",23.46545,41.88742
Botevgrad,"1","11043",23.79442,42.90588
Bankia - Ivanyane,"1","10552",23.14930,42.71009
Branipole / Belashtitsa / Brestnik / Kuklen,"1","10494",24.76446,42.05631
Novi pazar,"1","10180",27.19583,43.34526
Radnevo,"1","10059",25.93478,42.29245
Knezha,"1","9994",24.08049,43.49818
Balchik,"1","9972",28.16668,43.41857
Cherven bryag,"1","9552",24.08478,43.27608
Svilengrad,"1","9536",26.20772,41.77051
Parvomay,"1","9497",25.23547,42.10135
Lukovit,"1","8805",24.16434,43.20858
Sredets,"1","8603",27.18078,42.34736
Dulovo,"1","8501",27.12983,43.81280
Berkovitsa,"1","8402",23.12864,43.23696
Ihtiman,"1","8288",23.81254,42.43890
Kostenets,"1","8103",23.86387,42.31519
Burgas,"1","7915",27.44489,42.48106
Kavarna,"1","7898",28.33975,43.43254
Rakitovo,"1","7836",24.08505,41.99066
Pavlikeni,"1","7812",25.30773,43.23883
Galabovo,"1","7756",25.86379,42.13734
Sopot,"1","7622",24.75614,42.65222
Etropole,"1","7599",23.99330,42.83326
Momchilgrad,"1","7598",25.40967,41.52807
Byala Slatina,"1","7549",23.93298,43.46925
Isperih,"1","7495",26.83183,43.71469
Belene,"1","7490",25.12582,43.64649
Svoge,"1","7485",23.34040,42.95881
Pirdop,"1","7368",24.17869,42.70339
Septemvri,"1","7350",24.12788,42.21056
Vinitsa,"1","7341",27.98059,43.24357
Ognyanovo / Garmen / Debren / Dabnitsa,"1","7314",23.80980,41.59132
Botunets / Gorni Bogrov / Yana,"1","7297",23.52769,42.73163
Veliki Preslav,"1","7279",26.81389,43.16063
Kubrat,"1","7170",26.49961,43.79831
Provadia,"1","7121",27.44057,43.17734
Tutrakan,"1","7082",26.61346,44.04784
Bansko,"1","7043",23.48880,41.83702
Levski,"1","6968",25.14463,43.35962
Lyubimets,"1","6947",26.08361,41.84284
Dryanovo,"1","6871",25.47323,42.97882
Zlatograd,"1","6725",25.09250,41.38260
General Toshevo,"1","6697",28.03208,43.70245
Elin Pelin,"1","6626",23.60003,42.66907
Hisarya,"1","6585",24.71088,42.50722
Stamboliyski,"1","6556",24.53537,42.13499
Novi Iskar,"1","6406",23.34772,42.81251
Dolni chiflik,"1","6398",27.71483,42.99267
Mezdra,"1","6247",23.71787,43.14667
Elhovo,"1","6223",26.57076,42.17020
Simeonovgrad,"1","6051",25.83751,42.02789
Perushtitsa / Ustina,"1","5955",24.53695,42.05049
Krichim,"1","5950",24.47017,42.04374
Kazichene,"1","5941",23.46545,42.66739
Slivnitsa,"1","5932",23.03764,42.85005
Bobov dol / Mlamolovo,"1","5929",23.00866,42.36116
Popovo,"1","5899",26.22627,43.34787
Rakovski,"1","5790",24.96331,42.28547
Krumovgrad / Polkovnik Zhelyazovo / Vransko,"1","5772",25.65020,41.47000
Tervel,"1","5716",27.40600,43.74971
Aidemir,"1","5649",27.18200,44.09988
Lozen,"1","5630",23.48562,42.60224
Svetovrachene / Negovan / Chepintsi,"1","5592",23.41217,42.76871
Beloslav,"1","5564",27.70588,43.18935
Tryavna,"1","5536",25.49216,42.87135
Varshets,"1","5531",23.28487,43.19164
Kostandovo / Dorkovo,"1","5499",24.11969,42.03182
Ovoshtnik / Cherganovo,"1","5498",25.45017,42.58062
Bozhurishte,"1","5459",23.20200,42.76047
Polski Trambesh / Radanovo,"1","5453",25.63667,43.36143
Tsarevo,"1","5442",27.84612,42.16861
Teteven,"1","5435",24.26142,42.91588
Kotel,"1","5427",26.44286,42.89008
Pernik,"1","5386",23.06735,42.61184
Simitli,"1","5371",23.11758,41.88912
Dolno Ezerovo,"1","5361",27.37181,42.51915
Devin,"1","5359",24.39788,41.74286
Straldzha,"1","5358",26.69019,42.60184
Devnya,"1","5283",27.56945,43.21940
Omurtag,"1","5278",26.41739,43.11022
Ustovo,"1","5276",24.78250,41.57317
Topolovgrad,"1","5208",26.33655,42.08486
Nesebar,"1","5161",27.72704,42.66080
Skutare / Rogosh,"1","5130",24.85442,42.17955
Cherno More,"1","5117",27.48968,42.61418
Byala,"1","5036",25.73699,43.45881
Chepelare,"1","5012",24.68081,41.72425
Zürich,"2","656419",8.53887,47.37687
Genève,"2","407878",6.15371,46.19683
Basel,"2","391142",7.60561,47.55665
Lausanne,"2","217838",6.63237,46.52745
Bern,"2","179905",7.44295,46.94261
Luzern,"2","161053",8.30158,47.05938
Winterthur,"2","91986",8.73373,47.50215
St. Gallen,"2","71521",9.37625,47.43105
Lugano,"2","70346",8.95478,46.01322
Biel/Bienne,"2","63823",7.25325,47.13354
Fribourg,"2","54126",7.15145,46.79819
Thun,"2","51244",7.63550,46.74779
Baar,"1","47465",8.51328,47.18349
Neuchâtel-Pré Louiset,"1","45663",6.92695,46.99415
Schaffhausen,"1","35397",8.63280,47.69676
Olten,"1","34910",7.91151,47.34256
Bellinzona-Monti di Padevilla,"1","33296",9.02300,46.19619
Wettingen,"1","33108",8.31875,47.46415
La Tour-de-Peilz,"1","32652",6.84673,46.46347
Aarau-Rohr,"1","32434",8.06290,47.39188
Locarno-Locarno Monti,"1","31962",8.79286,46.16724
La Chaux-de-Fonds,"1","31541",6.82685,47.10012
Chur,"1","29059",9.52616,46.85743
Solothurn,"1","27365",7.54499,47.20763
Yverdon-les-Bains,"1","26817",6.64134,46.77809
Zollikofen / Ittigen,"1","25028",7.46981,46.98544
Rorschacherberg-Steggenweid,"1","24432",9.49885,47.47725
Uster-Niederuster,"1","23888",8.71806,47.34883
Wil (SG),"1","23530",9.04788,47.46395
Alpnach / Sarnen / Sachseln,"1","22939",8.23441,46.88840
Rapperswil-Jona,"1","22807",8.83034,47.22921
Liestal-Talacher,"1","22566",7.73421,47.48958
Wetzikon (ZH)-Unterwetzikon,"1","22071",8.79614,47.32272
Montreux-La Rottaz,"1","21824",6.90618,46.43616
Kaltbrunn,"1","21771",8.98944,47.22560
Sion,"1","21554",7.35787,46.23149
Uetikon am See,"1","21012",8.67172,47.26147
Morges,"1","20017",6.50186,46.51374
Wollerau,"1","19212",8.71415,47.20121
Meyrin,"1","18692",6.07659,46.23269
Buelach,"1","18538",8.54377,47.51640
Nyon,"1","18148",6.22858,46.38301
Frauenfeld,"1","17905",8.89878,47.55913
Monthey,"1","17654",6.94780,46.26412
Grenchen,"1","17373",7.39738,47.19488
Schwerzenbach-Holzacker,"1","17106",8.67510,47.38844
Wädenswil,"1","16877",8.66725,47.22990
Laufen / Brislach/ Breitenbach / Büsserach,"1","16753",7.52121,47.41744
Villmergen,"1","15980",8.26952,47.35035
Zofingen,"1","15013",7.94025,47.29058
Uzwil,"1","14978",9.13719,47.44057
Bulle,"1","14914",7.05811,46.61715
Brig-Glis-Unners Nesseltal,"1","14612",7.98944,46.31881
Martigny,"1","14538",7.07090,46.09933
Oensingen,"1","14247",7.67982,47.26620
Gossau (SG),"1","13945",9.25714,47.41377
Arbon,"1","13470",9.42558,47.51020
Burgdorf,"1","13381",7.62072,47.05171
Sierre,"1","13021",7.52738,46.29291
Glarus Nord-Vogelgut,"1","12978",9.06134,47.10979
Landquart-Igis,"1","12972",9.56422,46.95633
Interlaken,"1","12758",7.85481,46.68329
Stäfa,"1","12367",8.73585,47.23844
Habsburg,"1","12060",8.20330,47.47981
Langenthal,"1","12049",7.78492,47.21369
Versoix,"1","11619",6.16458,46.28697
Glarus,"1","11609",9.06244,47.04858
Altdorf (UR),"1","11557",8.64356,46.87096
Hünenberg-Hünenberg-See,"1","11413",8.45539,47.17908
Pratteln,"1","11369",7.69748,47.51983
Altendorf-Alp Stofel,"1","11360",8.84626,47.19144
Rüti (ZH),"1","11118",8.85009,47.25720
Gland,"1","11036",6.26881,46.42138
Lyss,"1","10600",7.30245,47.07397
Mels-Hinterspina,"1","10240",9.42471,47.04976
Etagnières / Morrens / Cugy / Boussens / Bioley-Orjulaz,"1","10012",6.61464,46.59474
Buchs (SG)-Malbun,"1","9678",9.47286,47.16478
Bremgarten (AG),"1","9677",8.34679,47.34704
Saxon,"1","9560",7.19696,46.16581
Neuenkirch,"1","9557",8.19111,47.12675
Burg,"1","9554",8.18144,47.25212
Oberentfelden,"1","9443",8.04204,47.35999
Freienbach,"1","9296",8.76956,47.20050
Frick,"1","9189",8.00694,47.49891
Egolzwil / Nebikon / Altishofen / Schötz / Wauwil,"1","9174",7.99260,47.18351
Spreitenbach,"1","9152",8.36436,47.41933
Le Locle,"1","9118",6.75336,47.05568
Ponte Tresa,"1","9077",8.86596,45.97136
Aadorf,"1","9009",8.91426,47.47211
Gerlafingen,"1","8987",7.56764,47.17482
Affoltern am Albis,"1","8936",8.45246,47.27808
Herisau,"1","8915",9.28313,47.38574
Fislisbach,"1","8778",8.28424,47.43880
Romanshorn,"1","8731",9.37583,47.56483
Münsingen,"1","8664",7.55966,46.87442
Herrliberg,"1","8566",8.61305,47.28324
Staufen,"1","8564",8.17118,47.38775
Celerina/Schlarigna-Alp dal Staz,"1","8497",9.85423,46.51050
Wattwil,"1","8488",9.08740,47.31027
Widnau,"1","8483",9.63590,47.40850
Appenzell,"1","8368",9.42054,47.32755
Aigle,"1","8250",6.96201,46.31860
Delémont,"1","8216",7.35136,47.36489
Walenstadt / Flums,"1","8149",9.33076,47.11199
Nussbaumen,"1","8083",8.28931,47.48570
Davos,"1","8019",9.83268,46.79939
Wald (ZH)-Fälmis,"1","7972",8.92376,47.27026
Amriswil,"1","7968",9.29863,47.54486
Eglisau / Glattfelden,"1","7876",8.51529,47.56745
Cossonay / Penthalaz,"1","7780",6.51967,46.60815
Illnau-Effretikon-Rikon,"1","7778",8.68866,47.42822
Sursee,"1","7751",8.10408,47.17051
Rolle,"1","7750",6.33775,46.45981
Therwil,"1","7704",7.55908,47.49881
Sulgen,"1","7669",9.20434,47.53722
Urtenen-Schönbühl,"1","7669",7.49274,47.01775
Bad Ragaz / Maienfeld,"1","7650",9.51294,47.00549
Turgi / Untersiggenthal,"1","7613",8.26019,47.49724
Buochs,"1","7613",8.41307,46.98038
Estavayer-Estavayer-le-Lac,"1","7608",6.82869,46.83364
Payerne,"1","7578",6.93765,46.81952
Eschenz,"1","7568",8.86363,47.65930
Langnau im Emmental,"1","7404",7.79519,46.93877
Oberdorf (BL),"1","7355",7.75433,47.40306
Muri,"1","7348",8.33377,47.27182
Flawil,"1","7300",9.17900,47.41501
Le Landeron-Montet du Haut,"1","7178",7.08374,47.06079
Schwyz,"1","7068",8.64412,47.01954
Porrentruy,"1","7030",7.07414,47.41302
Einsiedeln,"1","6968",8.74666,47.12881
Möhlin,"1","6860",7.84170,47.56329
Weinfelden,"1","6836",9.11016,47.56749
Bonstetten,"1","6799",8.47306,47.32638
Stans,"1","6788",8.36112,46.96159
Zunzgen,"1","6743",7.80627,47.45904
Murten,"1","6613",7.11631,46.92729
Bischofszell,"1","6612",9.24500,47.49393
Val-de-Travers,"1","6597",6.60476,46.91082
Bussigny,"1","6512",6.55340,46.54808
Münchenbuchsee,"1","6501",7.44994,47.01900
Augst,"1","6494",7.72322,47.53838
Gaienhofen / Steckborn,"1","6419",8.98355,47.67440
Gränichen,"1","6391",8.09708,47.36247
Visp,"1","6327",7.88450,46.29276
Hinwil,"1","6299",8.84387,47.29945
Hochdorf,"1","6299",8.29319,47.16615
Orbe,"1","6288",6.53405,46.72500
Worb,"1","6260",7.57642,46.92824
Belp,"1","6256",7.50211,46.88962
Vétroz,"1","6232",7.28707,46.22221
Domat/Ems,"1","6195",9.45000,46.83156
Küssnacht (SZ),"1","6194",8.44082,47.07833
Embrach,"1","6189",8.59147,47.51102
Spiez,"1","6174",7.67714,46.68786
Risch,"1","6078",8.42577,47.14114
Pfäffikon,"1","6055",8.78284,47.36630
Thusis / Scharans / Summaprada / Pratval / Scharans,"1","6045",9.44470,46.71248
Dielsdorf,"1","6008",8.45517,47.48368
Avully / Challex / Dardagny / Cartigny / Avusy / Avully,"1","5979",5.99930,46.16746
Biasca,"1","5973",8.96485,46.35970
Val-de-Ruz,"1","5961",6.90386,47.06031
Bagnes,"1","5927",7.22471,46.08092
Altstätten,"1","5923",9.54789,47.37817
Buchs (ZH),"1","5905",8.44286,47.45199
Troinex,"1","5818",6.17205,46.16702
Gordola,"1","5788",8.86807,46.17858
Echallens,"1","5779",6.63344,46.64344
Rothrist,"1","5747",7.88329,47.30450
Unterägeri,"1","5612",8.57735,47.13873
Tavannes-Bergerie le Grimm,"1","5513",7.21520,47.22939
Niederhasli,"1","5499",8.48844,47.47964
Cortaillod,"1","5467",6.84709,46.94605
Willisau,"1","5456",7.99182,47.11821
Düdingen,"1","5446",7.19613,46.84607
Balsthal,"1","5426",7.69592,47.31630
Herzogenbuchsee-Moos,"1","5313",7.70559,47.18683
Malters,"1","5286",8.18557,47.03833
Arth,"1","5274",8.54680,47.05279
Zermatt,"1","5264",7.74888,46.02118
Bösingen,"1","5252",7.23281,46.89656
Moutier,"1","5245",7.37118,47.27831
Greifensee,"1","5217",8.68352,47.36964
Schmitten / Wünnewil,"1","5131",7.25959,46.86121
Melano / Maroggia / Rovio,"1","5118",8.97786,45.92245
Fehraltorf,"1","5076",8.75368,47.38697
Saint-Maurice,"1","5035",7.00450,46.21079
Lefkosia,"2","197867",33.34589,35.14877
Lemesos,"2","156304",33.03169,34.69218
Larnaka,"2","65815",33.61380,34.92737
Πάφος,"1","26145",32.43148,34.77823
Pera Chorio,"1","12836",33.40051,35.00909
Kiti,"1","12395",33.58211,34.85195
Latsia,"1","11610",33.38582,35.10734
Ypsonas,"1","7358",32.96298,34.68936
Παραλίμνι,"1","6571",33.98074,35.04326
Ξυλοφάγου,"1","5295",33.84710,34.97541
Praha,"2","1127410",14.43365,50.07099
Brno,"2","298302",16.59751,49.20992
Ostrava,"2","171307",18.26039,49.81026
Plzeň,"2","96762",13.38406,49.74053
Liberec,"2","90466",15.06274,50.76096
Olomouc,"2","79681",17.24935,49.59037
České Budějovice,"2","79459",14.47072,48.97380
Hradec Králové,"2","78695",15.83760,50.20462
Pardubice,"2","74235",15.77665,50.04052
Havířov,"2","71545",18.43647,49.78527
Ostrava-Poruba,"2","70938",18.17383,49.83378
Most,"2","59895",13.64127,50.50208
Chomutov / Jirkov,"2","59162",13.42767,50.48267
Ústí nad Labem,"2","58786",14.04577,50.66723
Kladno,"2","55644",14.10531,50.14187
Karviná,"2","50612",18.54972,49.85927
Frýdek-Místek,"1","48517",18.34844,49.67840
Opava,"1","47167",17.90305,49.93676
Teplice,"1","47070",13.83185,50.64268
Zlín,"1","44990",17.67894,49.23065
Mladá Boleslav / Kosmonosy,"1","41590",14.91573,50.42307
Prostějov,"1","40933",17.10619,49.47126
Karlovy Vary,"1","39306",12.85930,50.23388
Jihlava,"1","39303",15.58890,49.40272
Přerov,"1","35767",17.45222,49.45449
Brno-Bohunice / Lískovec,"1","35382",16.56691,49.17162
Plzeň-Severní Předměstí,"1","34936",13.37033,49.77538
Třebíč,"1","32861",15.87649,49.21473
Jablonec nad Nisou,"1","31868",15.16697,50.72674
Česká Lípa,"1","31565",14.53841,50.68713
Cheb,"1","29092",12.37338,50.07635
Znojmo,"1","28814",16.05008,48.86026
Příbram,"1","27483",13.99659,49.67759
Děčín,"1","26820",14.20890,50.77548
Písek,"1","24484",14.15043,49.30826
Kroměříž,"1","24274",17.39221,49.29461
Hodonín,"1","23899",17.12516,48.85788
Orlová-Lutyně,"1","23823",18.42883,49.86902
Uherské Hradiště,"1","23720",17.46029,49.06818
Kolín,"1","23638",15.19693,50.02343
Litoměřice,"1","22565",14.12568,50.54084
Vsetín,"1","22522",17.99591,49.33707
Sokolov,"1","21759",12.65612,50.17761
Třinec,"1","21716",18.67856,49.66925
Šumperk,"1","21528",16.97104,49.96989
Nový Jičín-Nový Jičín-Horní Předměstí,"1","20438",18.00743,49.59419
Chrudim,"1","20168",15.80015,49.94948
Žďár nad Sázavou,"1","18680",15.94011,49.56506
Tábor,"1","18233",14.66382,49.41655
Jindřichův Hradec,"1","18035",15.00806,49.14324
Krnov,"1","17945",17.69958,50.08896
Kopřivnice,"1","17228",18.14124,49.59906
Havlíčkův Brod,"1","16641",15.57967,49.60870
Trutnov,"1","16554",15.91348,50.56267
Žatec,"1","16481",13.53992,50.32281
Strakonice,"1","16377",13.90299,49.26220
Blansko,"1","16312",16.64802,49.36310
Litvínov,"1","15814",13.61061,50.60409
Ostrov,"1","15380",12.94861,50.30809
Louny,"1","15299",13.80281,50.35713
Kralupy nad Vltavou,"1","15182",14.30616,50.24251
Bruntál,"1","14629",17.45972,49.98486
Neratovice,"1","14551",14.51822,50.25683
Kadaň,"1","14289",13.27006,50.38483
Valašské Meziříčí,"1","14036",17.97475,49.46940
Bílina,"1","13891",13.78173,50.55088
Bohumín,"1","13814",18.35711,49.89965
Náchod,"1","13585",16.16612,50.41502
Kutná Hora,"1","13356",15.27401,49.95261
Praha-Horní Počernice,"1","13245",14.60949,50.11134
Klášterec nad Ohří,"1","13059",13.17905,50.39189
Klatovy,"1","13050",13.29083,49.39732
Rakovník,"1","12987",13.72671,50.10537
Vyškov,"1","12968",16.99898,49.27857
Rosice / Zastávka,"1","12720",16.37137,49.17690
Otrokovice,"1","12695",17.53566,49.20463
Jičín,"1","12288",15.35396,50.43695
Uherský Brod,"1","12244",17.65036,49.02596
Rokycany,"1","12195",13.59430,49.74060
Svitavy,"1","11646",16.46195,49.75736
Kravaře,"1","11353",18.00398,49.91891
Slaný,"1","11346",14.07803,50.22987
Benešov,"1","11216",14.68918,49.78160
Chodov,"1","11207",12.74105,50.24128
Hranice,"1","11147",17.73805,49.55219
Břeclav,"1","10782",16.88489,48.76210
Šternberk,"1","10714",17.29380,49.72479
Varnsdorf,"1","10618",14.62428,50.90994
Tanvald / Desná,"1","10572",15.30837,50.73369
Pelhřimov,"1","10347",15.21289,49.43279
Tachov,"1","10342",12.63910,49.79387
Roudnice nad Labem,"1","10339",14.25929,50.42433
Ústí nad Labem-Neštěmice / Mojžíř,"1","10318",14.10735,50.67593
Zábřeh,"1","10317",16.87291,49.88504
Krupka,"1","10231",13.87532,50.68322
Kuřim,"1","10083",16.53707,49.30044
Hrušovany u Brna / Židlochovice,"1","9951",16.60503,49.02930
Sušice,"1","9861",13.52042,49.23434
Nymburk,"1","9784",15.03341,50.18874
Poděbrady,"1","9618",15.12735,50.14852
Říčany,"1","9464",14.66829,49.99637
Česká Třebová,"1","9382",16.44216,49.90432
Úpice,"1","9319",16.03847,50.51559
Frýdlant nad Ostravicí / Čeladná,"1","9196",18.34979,49.58379
Jeseník,"1","9128",17.20571,50.22921
Domažlice,"1","9124",12.92593,49.44339
Uničov,"1","8943",17.11699,49.77067
Prachatice,"1","8900",13.99983,49.01566
Sezimovo Ústí,"1","8772",14.68593,49.38990
Bystřice pod Hostýnem,"1","8772",17.66788,49.40191
Litomyšl,"1","8615",16.31108,49.87141
Studénka,"1","8613",18.05488,49.71629
Turnov,"1","8609",15.15521,50.58795
Frenštát pod Radhoštěm,"1","8450",18.20997,49.54586
Čáslav,"1","8442",15.39045,49.91109
Nový Bor,"1","8416",14.55478,50.75814
Plzeň-Vinice,"1","8273",13.35269,49.76151
Velké Meziříčí,"1","8238",16.01448,49.35370
Zubří,"1","8205",18.12900,49.46437
Dvůr Králové nad Labem,"1","8159",15.81184,50.42815
Milovice,"1","8126",14.87372,50.22870
Lovosice,"1","8093",14.04630,50.51607
Boskovice,"1","8071",16.66176,49.48861
Lanškroun,"1","8065",16.61068,49.90966
Hlučín,"1","7870",18.19122,49.89972
Holešov,"1","7822",17.57374,49.33153
Kyjov,"1","7796",17.13080,49.01446
Beroun,"1","7747",14.07156,49.96303
Rýmařov,"1","7719",17.26132,49.94055
Ústí nad Labem-Bukov / Všebořice,"1","7619",13.99247,50.68597
Litovel,"1","7616",17.07124,49.69682
Přelouč,"1","7556",15.56079,50.03506
Vlašim,"1","7465",14.89452,49.70234
Semily,"1","7407",15.32898,50.60300
Aš,"1","7398",12.19291,50.21713
Hořovice,"1","7313",13.90114,49.84147
Čelákovice,"1","7311",14.74764,50.16196
Moravská Třebová,"1","7297",16.65741,49.75956
Vysoké Mýto,"1","7260",16.15223,49.95048
Brušperk / Fryčovice,"1","7211",18.21721,49.69749
Mnichovo Hradiště / Klášter Hradiště n. J.,"1","7197",14.96566,50.52499
Rumburk,"1","7143",14.55461,50.95023
Praha-Újezd nad Lesy,"1","7137",14.66202,50.07543
Přeštice,"1","7078",13.33424,49.57485
Týn nad Vltavou,"1","7054",14.42254,49.22493
Mikulov,"1","7001",16.63835,48.80869
Jaroměř,"1","6973",15.91905,50.34453
Kostelec nad Orlicí,"1","6972",16.20055,50.12520
Bystřice nad Pernštejnem,"1","6865",16.25473,49.52459
Benátky nad Jizerou,"1","6836",14.83568,50.29187
Štětí,"1","6772",14.37460,50.45150
Trutnov-Horní Staré Město,"1","6767",15.88758,50.58203
Brandýs nad Labem,"1","6745",14.65161,50.18394
Moravské Budějovice,"1","6713",15.80613,49.05359
Vimperk,"1","6683",13.78134,49.05838
Hronov,"1","6663",16.17884,50.47205
Český Krumlov,"1","6571",14.32011,48.81609
Tuchlovice / Stochov,"1","6562",13.97476,50.14199
Chotěboř,"1","6548",15.67030,49.71867
Pečky,"1","6522",15.02546,50.08587
Hlinsko,"1","6512",15.91944,49.76450
Červený Kostelec,"1","6512",16.08712,50.48146
Nejdek,"1","6505",12.72883,50.32163
Hostivice,"1","6457",14.25177,50.07948
Sedlčany,"1","6435",14.42444,49.65626
Veselí nad Moravou,"1","6379",17.38540,48.95575
Bílovec / Velké Albrechtice,"1","6311",18.01985,49.75536
Žamberk,"1","6289",16.45920,50.08226
Třeboň,"1","6279",14.75527,49.01040
Broumov,"1","6278",16.33454,50.58528
Rychnov nad Kněžnou,"1","6276",16.27770,50.16006
Humpolec,"1","6274",15.35886,49.54460
Světlá nad Sázavou,"1","6264",15.40624,49.67122
Pozořice / Sivice / Tvarožná / Viničné Šumice,"1","6154",16.79235,49.20504
Kaplice,"1","6149",14.48983,48.74211
Vrchlabí,"1","6124",15.60911,50.62300
Hustopeče,"1","6112",16.72162,48.94358
Zlín-Malenovice,"1","6092",17.58848,49.20407
Český Brod,"1","6089",14.86352,50.07421
Stříbro,"1","6077",13.00044,49.75639
Holice,"1","6069",15.99069,50.07246
Ivančice,"1","6042",16.37315,49.10237
Mimoň,"1","5994",14.72854,50.65989
Slavkov u Brna,"1","5952",16.87901,49.15242
Břeclav-Poštorná,"1","5948",16.85655,48.75483
Nový Bydžov,"1","5942",15.48601,50.23695
Letohrad,"1","5922",16.50982,50.02975
Litvínov-Janov / Hamr,"1","5917",13.56725,50.59194
Mohelnice,"1","5876",16.92525,49.77957
Horní Slavkov,"1","5862",12.80220,50.13634
Dobřany,"1","5854",13.29429,49.65222
Blatná,"1","5835",13.87843,49.42962
Dubňany,"1","5798",17.09867,48.91869
Telnice / Měnín / Sokolnice / Žatčany,"1","5794",16.71643,49.09832
Hrádek nad Nisou,"1","5794",14.84705,50.84588
Vodňany,"1","5787",14.17501,49.14435
Kojetín,"1","5762",17.30075,49.35640
Milevsko,"1","5728",14.36637,49.44328
Slavičín,"1","5706",17.88012,49.08602
Brno-Slatina,"1","5705",16.68178,49.18061
Sušice-Jalubí-Traplice-Kudlovice-Babice,"1","5703",17.45539,49.12069
Mělník-Rousovice / Slovany,"1","5696",14.49130,50.34344
Kraslice,"1","5676",12.51270,50.32658
Hořice,"1","5663",15.63535,50.36937
Týniště nad Orlicí,"1","5650",16.07564,50.15117
Strážnice,"1","5650",17.31519,48.89897
Mariánské Lázně,"1","5603",12.69724,49.96344
Lipník nad Bečvou,"1","5601",17.58569,49.52643
Tišnov,"1","5598",16.42896,49.35330
Kynšperk nad Ohří,"1","5577",12.53826,50.12153
Dobříš,"1","5577",14.17462,49.78372
Praha-Radotín,"1","5524",14.35968,49.98386
Nýřany,"1","5496",13.20351,49.71183
Bučovice,"1","5468",17.00504,49.14430
Dobruška,"1","5461",16.15443,50.29302
Dobřív / Hrádek / Mirošov,"1","5460",13.66085,49.70246
Bzenec,"1","5442",17.29755,48.97830
Mělník-centrum,"1","5438",14.47812,50.35296
Praha-Zbraslav,"1","5424",14.38629,49.96933
Nové Město nad Metují,"1","5405",16.14859,50.35645
Odolena Voda,"1","5393",14.41524,50.23234
Buchlovice / Tupesy / Zlechov,"1","5362",17.35668,49.08521
Nové Město na Moravě,"1","5328",16.07562,49.56685
Polička,"1","5322",16.26818,49.71415
Roztoky,"1","5321",14.39008,50.16278
Rousínov,"1","5303",16.88510,49.20552
Zlín-Prštné,"1","5295",17.64592,49.21823
Frýdlant,"1","5294",15.08175,50.92226
Dačice,"1","5260",15.43181,49.08141
Ústí nad Orlicí,"1","5253",16.40006,49.97286
Veselí nad Lužnicí,"1","5245",14.70555,49.18788
Osek / Háj u Duchcova,"1","5223",13.70014,50.62734
Jilemnice,"1","5197",15.50561,50.61089
Telč,"1","5181",15.45446,49.18247
Soběslav,"1","5174",14.71503,49.26256
Choceň,"1","5137",16.21478,50.00118
Nové Strašecí / Rynholec / Stochov,"1","5123",13.90875,50.14878
Králův Dvůr,"1","5122",14.04993,49.95480
Podbořany,"1","5118",13.40868,50.22481
Třešť,"1","5083",15.47845,49.28422
Hulín,"1","5061",17.47444,49.31561
Nová Paka,"1","5005",15.51524,50.48787
Letovice,"1","5004",16.57389,49.54611
Berlin,"2","3249780",13.39737,52.49900
Ruhrgebiet,"2","2811110",7.12761,51.50308
Hamburg,"2","1551480",10.03505,53.59597
München,"2","1488280",11.56081,48.13504
Köln,"2","898846",6.98951,50.96523
Frankfurt am Main,"2","751326",8.67056,50.12483
Düsseldorf,"2","647358",6.81184,51.21460
Stuttgart,"2","600853",9.20012,48.81274
Solingen / Wuppertal,"2","567529",7.10838,51.21838
Hannover,"2","558064",9.75611,52.37920
Fürth,"2","491954",11.04963,49.44681
Bonn,"2","489259",7.12133,50.75308
Dresden,"2","477154",13.73392,51.04841
Leipzig,"2","449798",12.36017,51.33575
Mannheim/Ludwigshafen,"2","413538",8.44153,49.49588
Bremen,"2","365942",8.86641,53.07200
Haunstetten,"2","304963",10.88965,48.35279
Karlsruhe,"2","229219",8.39216,49.01481
Kiel,"2","212700",10.13698,54.32843
Krefeld,"2","201148",6.57548,51.33361
Magdeburg,"2","200215",11.61888,52.12981
Aachen,"2","197177",6.10737,50.77350
Halle an der Saale,"2","193398",11.95835,51.47965
Mönchengladbach,"2","192768",6.44645,51.18020
Kassel,"2","192386",9.45843,51.30908
Wiesbaden,"2","190828",8.23076,50.07119
Mainz,"2","187837",8.26426,49.99363
Freiburg im Breisgau,"2","185511",7.83466,48.00213
Moers / Rheinhausen,"2","179179",6.67932,51.42922
Münster,"2","177775",7.61747,51.96413
Braunschweig,"2","176706",10.51723,52.26051
Bielefeld,"2","167216",8.54879,52.02790
Lübeck,"2","166837",10.68799,53.87320
Chemnitz,"2","164011",12.91650,50.82284
Hagen,"2","155976",7.45505,51.36800
Duisburg,"2","154353",6.77562,51.39668
Erfurt,"2","149335",11.03195,50.98393
Oldenburg (Oldenburg),"2","145028",8.20724,53.14749
Heidelberg,"2","137868",8.67356,49.40145
Potsdam,"2","126166",13.08034,52.39091
Ulm/Neu-Ulm,"2","126040",9.99693,48.40286
Leverkusen,"2","122987",7.01757,51.04570
Regensburg,"2","121288",12.09273,49.02260
Osnabrück,"2","110112",8.04355,52.28259
Saarbrücken,"2","107568",6.97964,49.23515
Ludwigsburg,"2","105942",9.18597,48.89528
Koblenz,"2","105182",7.59306,50.34932
Esslingen am Neckar,"2","104590",9.29815,48.73253
Würzburg,"2","103529",9.94135,49.78967
Hamm,"2","101037",7.81581,51.68224
Göttingen,"2","98866",9.92676,51.54146
Bremerhaven,"2","98696",8.59782,53.55625
Reutlingen,"2","98541",9.20448,48.49959
Ingolstadt,"2","93855",11.42136,48.76011
Porz,"2","93485",7.03645,50.88225
Neuss,"2","93040",6.68364,51.18459
Sindelfingen,"2","92324",9.00218,48.70115
Harburg,"2","89277",9.96914,53.44909
Heilbronn,"2","88978",9.20834,49.12893
Erlangen,"2","87296",11.00641,49.59078
Konstanz / Kreuzlingen,"2","85417",9.17858,47.66600
Darmstadt,"2","85259",8.64316,49.87020
Pforzheim,"2","83577",8.69508,48.88762
Rüsselsheim am Main,"2","79898",8.43173,49.99118
Flensburg,"2","79610",9.43993,54.79543
Rostock,"2","78514",12.11343,54.08524
Lünen,"2","77210",7.53955,51.60761
Cottbus,"2","76513",14.33595,51.75847
Trier,"2","75959",6.64289,49.74394
Gera,"2","74679",12.07895,50.86752
Hanau,"2","74405",8.92249,50.12286
Göppingen,"2","73174",9.68449,48.69720
Gröpelingen / Vegesack,"2","73005",8.66775,53.17202
Görlitz / Zgorzelec,"2","72352",14.98144,51.14998
Paderborn,"2","72343",8.76332,51.72194
Marl,"2","72129",7.12035,51.66539
Vaihingen / Möhringen,"2","71402",9.12743,48.72841
Kaiserslautern,"2","66576",7.76426,49.44138
Hildesheim,"2","66336",9.94400,52.14479
Jena,"2","64853",11.59067,50.92497
Lütten Klein,"2","62993",12.06051,54.13747
Iserlohn,"2","62756",7.67145,51.37683
Delmenhorst,"2","62320",8.63366,53.04781
Wolfsburg,"2","62045",10.76399,52.41545
Tübingen,"2","61409",9.05866,48.52411
Bamberg,"2","61044",10.89692,49.89996
Gießen,"2","60134",8.68419,50.58672
Frankfurt (Oder),"2","59686",14.54290,52.34347
Landshut,"2","58828",12.14735,48.54272
Lüdenscheid,"2","57934",7.63226,51.22225
Kempten (Allgäu),"2","57815",10.31237,47.72232
Neumünster,"2","57614",9.98681,54.07015
Remscheid,"2","57080",7.18635,51.18121
Düren,"2","56800",6.47775,50.80479
Bayreuth,"2","55787",11.57138,49.94462
Bocholt,"2","55123",6.61510,51.83551
Gütersloh,"2","54407",8.38304,51.90558
Rosenheim,"2","53772",12.12009,47.85462
Lüneburg,"2","51892",10.40691,53.24348
Herzogenrath,"2","51522",6.08056,50.85749
Plauen,"2","51199",12.13626,50.49727
Bad Soden am Taunus / Kelkheim,"2","50718",8.48295,50.13759
Schweinfurt,"2","50260",10.22572,50.05243
Zwickau,"1","49003",12.48888,50.72825
Kriftel,"1","48816",8.47106,50.08470
"Neubrandenburg, Stadt","1","48814",13.27233,53.55949
"Greifswald, Hansestadt","1","47244",13.40986,54.08779
Aschaffenburg-Obernauer Kolonie,"1","46637",9.14856,49.97349
Wilhelmshaven-Bant,"1","46405",8.10847,53.53035
Speyer,"1","46114",8.42824,49.32695
Elmshorn,"1","45190",9.66331,53.74934
"Rheine, Stadt","1","45085",7.44158,52.28250
Brühl-Kierberg,"1","45000",6.89705,50.82454
"Weimar, Stadt","1","44380",11.32787,50.97973
Herford,"1","44172",8.68146,52.11736
"Marburg, Universitätsstadt","1","44048",8.76856,50.80317
Dessau,"1","43923",12.23603,51.83117
Lehnerz,"1","43893",9.69224,50.55242
Wilhelmsburg,"1","43498",10.00452,53.50076
Puchheim-Puchheim-Bahnhof,"1","43199",11.35652,48.18145
Garbsen-Havelse,"1","42854",9.60071,52.41873
"Stralsund, Hansestadt","1","42515",13.07412,54.31588
Langen-Linden,"1","41392",8.66429,49.98100
Bad Homburg vor der Höhe,"1","41176",8.61536,50.22979
Pinneberg-Pinneberg-Mitte,"1","40741",9.80340,53.65530
Salzgitter,"1","40578",10.31938,52.15685
Worms-Stadtzentrum,"1","40562",8.35503,49.63626
Altrip-Im Krappen,"1","40282",8.52296,49.42596
Minden,"1","40107",8.89657,52.29145
Celle-Neuenhäusen,"1","40059",10.07475,52.61840
Velbert,"1","39635",7.03310,51.33925
"Ahlen, Stadt","1","39161",7.89645,51.76035
Siegen,"1","38828",8.02943,50.88141
Zeppelindorf,"1","38151",9.47726,47.66566
"Heidenheim an der Brenz, Stadt","1","37893",10.15357,48.68169
Unna-Massen,"1","37325",7.67619,51.54035
Rendsburg-Neuwerk,"1","37139",9.66529,54.30403
"Detmold, Stadt","1","37060",8.86889,51.93808
Wesel-Fusternberg,"1","36788",6.62630,51.66391
Alsdorf,"1","36779",6.17851,50.86830
"Gotha, Stadt","1","36722",10.70669,50.94547
Hochdahl,"1","36701",6.93635,51.20572
"Nordhorn, Stadt","1","36642",7.06896,52.43096
"Wolfenbüttel, Stadt","1","36067",10.54272,52.16420
Hürth,"1","36040",6.88123,50.88162
"Dachau, GKSt","1","35683",11.44267,48.25660
Seligenstadt,"1","35580",8.97781,50.06838
Frechen,"1","35461",6.81427,50.90723
"Rheda-Wiedenbrück, Stadt","1","34928",8.30040,51.84497
Schwerin,"1","34728",11.40834,53.63391
"Offenburg, Stadt","1","34613",7.94618,48.46767
Amberg-Luitpoldhöhe,"1","34596",11.86574,49.43669
Hennigsdorf / Heiligensee,"1","34159",13.21405,52.62258
Dorsten,"1","34100",6.96425,51.66865
"Freiberg, Stadt, Universitätsstadt","1","34057",13.33564,50.91380
"Germering, GKSt","1","33911",11.36970,48.13067
Schwetzingen-Schälzig,"1","33895",8.57471,49.38440
"Soest, Stadt","1","33743",8.10442,51.56824
Brielower Ausbau,"1","33623",12.54492,52.41112
Hof,"1","33588",11.91430,50.31311
"Freising, GKSt","1","33507",11.75112,48.40222
Neugraben-Fischbek / Hausbruch,"1","33454",9.85910,53.47051
Bodelschwingh,"1","33406",7.37958,51.55930
Langwasser,"1","33067",11.12802,49.40863
Neuwied-Raiffeisenring,"1","32855",7.46705,50.43798
"Leonberg, Stadt","1","32705",9.01679,48.80171
Rodgau,"1","32612",8.87969,50.01598
Waldau,"1","32367",9.54512,51.29149
Memmingen,"1","32334",10.17834,47.98985
Straubing,"1","32065",12.57449,48.87551
Mühlheim am Main,"1","32058",8.83860,50.12487
Gröpelingen,"1","31249",8.75528,53.12142
"Singen (Hohentwiel), Stadt","1","31041",8.84689,47.75855
"Viernheim, Stadt","1","30933",8.57879,49.54023
Menden,"1","30651",7.78279,51.44093
"Rastatt, Stadt","1","30537",8.20361,48.86230
Bernau-Zeppernick,"1","30378",13.55086,52.66305
Weinheim-Weststadt,"1","30246",8.66269,49.54148
Sillenbuch / Hedelfingen,"1","30221",9.22893,48.74916
Rheinfelden,"1","30132",7.78323,47.55837
Sandhausen,"1","30041",8.66832,49.34329
Stolberg,"1","29839",6.22440,50.77338
"Wismar, Hansestadt","1","29837",11.44230,53.89216
"Lippstadt, Stadt","1","29776",8.34309,51.67224
Merzig / Mettlach,"1","29633",6.63264,49.46553
Würselen,"1","29605",6.13640,50.82446
"Bautzen, Stadt","1","29550",14.43742,51.18028
Weiden i.d.OPf.,"1","29481",12.15845,49.68096
"Bad Salzuflen, Stadt","1","29430",8.75045,52.07579
Huchting,"1","29425",8.72810,53.04654
"Lahr/Schwarzwald, Stadt","1","29420",7.85403,48.33890
"Landau in der Pfalz, Stadt","1","29261",8.12042,49.19911
Rintgen,"1","29135",6.39318,51.25209
"Hameln, Stadt","1","29051",9.36017,52.11061
Mettmann,"1","28696",6.96774,51.25385
"Kamp-Lintfort, Stadt","1","28646",6.54319,51.49905
Hofherrnweiler,"1","28507",10.08728,48.83811
"Oer-Erkenschwick, Stadt","1","28464",7.25697,51.64188
Fürstenfeldbruck-Bruck,"1","28363",11.24713,48.17856
Schwenningen,"1","28125",8.53146,48.06528
"Bad Kreuznach, Stadt","1","28082",7.86607,49.83898
Karow,"1","27953",13.48764,52.62045
"Stendal, Hansestadt","1","27808",11.84924,52.60230
"Halberstadt, Stadt","1","27775",11.05480,51.89292
"Dietzenbach, Kreisstadt","1","27618",8.78118,50.01779
"Lingen (Ems), Stadt","1","27614",7.32297,52.52117
"Eisenach, Stadt","1","27606",10.31328,50.98391
Neu-Isenburg,"1","27548",8.69055,50.05147
Buxtehude-Ottensen,"1","27467",9.68758,53.46779
"Altenburg, Stadt","1","27201",12.43594,50.99020
Wedel-Schulau Ost,"1","27166",9.71129,53.58017
"Schorndorf, Stadt","1","27057",9.52098,48.80277
"Nordhausen, Stadt","1","27030",10.79935,51.50487
Bietigheim,"1","26941",9.12128,48.95326
"Eberswalde, Stadt","1","26848",13.78556,52.83449
Kaufbeuren,"1","26657",10.63102,47.89200
"Bensheim, Stadt","1","26637",8.61718,49.69088
"Erding, GKSt","1","26453",11.90946,48.30421
"Neustadt an der Weinstraße, Stadt","1","26393",8.14505,49.35130
Castrop-Rauxel-Ickern Süd,"1","26266",7.32423,51.59422
Cleves-Materborn,"1","26164",6.12387,51.77773
"Fürstenwalde/Spree, Stadt","1","25948",14.06817,52.35731
"Emsdetten, Stadt","1","25930",7.52861,52.16845
Hamm (Sieg)-Auf der Huth,"1","25913",7.65301,50.78034
"Emden, Stadt","1","25734",7.21231,53.37438
Ravensburg,"1","25707",9.60365,47.77839
Bergkamen-Weddinghofen,"1","25591",7.63913,51.61336
Neunkirchen (Saar),"1","25479",7.19067,49.35157
"Neumarkt i.d.OPf., GKSt","1","25441",11.46198,49.28099
Dreieich-Sprendlingen,"1","25373",8.69400,50.01440
Bad Oeyenhausen,"1","25310",8.78845,52.19902
Kaarst-Holzbüttgen,"1","25239",6.61710,51.22732
Hoyerswerda,"1","25223",14.25461,51.43915
Brambauer,"1","24992",7.44907,51.58914
Eschweiler,"1","24955",6.26747,50.81553
Kloster,"1","24946",7.03157,52.21299
Durlach / Aue,"1","24817",8.46573,48.99476
"Euskirchen, Stadt","1","24767",6.78688,50.65974
Elsen,"1","24605",8.69930,51.74365
Villingen,"1","24585",8.45706,48.06126
"Gifhorn, Stadt","1","24446",10.55045,52.47864
"Merseburg, Stadt","1","24384",11.98655,51.35170
Arheiligen,"1","24375",8.66671,49.90474
"Güstrow, Stadt","1","24277",12.17921,53.79237
Schwerin (Neu-Zippendorf),"1","24178",11.45001,53.59997
"Schwedt/Oder, Stadt","1","24132",14.27352,53.06109
Nürtingen-Oberensingen,"1","23983",9.33286,48.62368
Bischofsheim,"1","23940",8.35588,50.00152
"Schönebeck (Elbe), Stadt","1","23914",11.72423,52.01101
Keldenich,"1","23895",6.97685,50.81444
"Griesheim, Stadt","1","23323",8.56756,49.86199
Hostenbach / Wehrden,"1","23315",6.81179,49.25900
Schwabach-Nasbach,"1","23299",11.02305,49.33094
"Schwäbisch Gmünd, Stadt","1","23280",9.81801,48.79577
"Unterschleißheim, St","1","23253",11.57350,48.27831
Neulobeda,"1","23229",11.61998,50.88160
Oberasbach-Petershöhe,"1","23135",10.95809,49.43831
Schwerte-Holzen-Rosen,"1","23088",7.56325,51.44545
"Cuxhaven, Stadt","1","23034",8.69185,53.86413
Moers-Meerfeld,"1","22997",6.61678,51.48178
Pirna-Sonnenstein,"1","22890",13.94091,50.96176
"Datteln, Stadt","1","22851",7.33724,51.64961
Rheindorf,"1","22676",6.93780,51.05742
Grevenbroich,"1","22632",6.58853,51.08768
"Plettenberg, Stadt","1","22622",7.86038,51.20835
"Obertshausen, Stadt","1","22568",8.85220,50.07655
Toitenwinkel,"1","22549",12.15583,54.11091
Thalheim,"1","22507",12.89473,50.68247
"Weißenfels, Stadt","1","22437",11.96561,51.19807
Brackwede,"1","22399",8.49951,51.98726
"Dülmen, Stadt","1","22284",7.28123,51.83444
Heisingen / Dilldorf,"1","22143",7.07521,51.39565
Kirchheim unter Teck-Schafhof,"1","22064",9.45448,48.64439
"Bernburg (Saale), Stadt","1","22043",11.74241,51.78873
"Nienburg (Weser), Stadt","1","22035",9.22003,52.64003
Hövel,"1","21992",7.75297,51.69689
Heepen,"1","21758",8.60373,52.06366
"Backnang, Stadt","1","21754",9.43358,48.94885
Kempen,"1","21486",6.41815,51.36276
"Geesthacht, Stadt","1","21461",10.37054,53.44066
"Cloppenburg, Stadt","1","21424",8.04151,52.84527
"Oranienburg, Stadt","1","21295",13.24779,52.74571
"Pirmasens, Stadt","1","21187",7.60025,49.19909
Goslar,"1","21112",10.43497,51.91510
"Mühlhausen/Thüringen, Stadt","1","21081",10.45361,51.20728
"Leer (Ostfriesland), Stadt","1","21016",7.46594,53.23809
Haidenhof-Thanöd,"1","20944",13.44868,48.57034
Neckarsulm,"1","20929",9.23858,49.20340
Waltrop-Braßkamp,"1","20854",7.39596,51.62147
"Buchholz in der Nordheide, Stadt","1","20791",9.87077,53.32846
"Coesfeld, Stadt","1","20791",7.16261,51.93956
Blumenthal,"1","20779",8.56054,53.19116
"Köthen (Anhalt), Stadt","1","20615",11.96234,51.74994
Lampertheim,"1","20589",8.47169,49.59542
Südkamen,"1","20565",7.65726,51.58862
Forchheim,"1","20437",11.06429,49.72403
"Zeitz, Stadt","1","20409",12.13824,51.04617
"Tuttlingen, Stadt","1","20344",8.82393,47.98480
Haan,"1","20332",7.00627,51.19301
Coburg,"1","20330",10.96241,50.26447
"Burgdorf, Stadt","1","20250",10.00919,52.44599
Horrem,"1","20235",6.82969,51.09837
Wunstorf,"1","20212",9.44507,52.42447
Ansbach,"1","20202",10.57284,49.30603
"Bünde, Stadt","1","20107",8.58504,52.19377
Baesweiler,"1","19840",6.19250,50.91337
Selters / Bad Camberg,"1","19760",8.26173,50.30440
"Suhl, Stadt","1","19672",10.69733,50.61429
Olching-Neu-Esting,"1","19664",11.33238,48.20714
Idar-Oberstein-Idar,"1","19635",7.31424,49.72273
"Arnstadt, Stadt","1","19524",10.94396,50.83366
"Naumburg (Saale), Stadt","1","19449",11.80816,51.15198
Lennep,"1","19448",7.26720,51.19044
Bad Rothenfelde,"1","19443",8.16766,52.11613
Asseln,"1","19410",7.60489,51.53210
"Hückelhoven, Stadt","1","19362",6.20896,51.06047
"Lemgo, Stadt","1","19226",8.90410,52.02766
"Rödermark, Stadt","1","19198",8.81614,49.97448
"Vechta, Stadt","1","19006",8.28276,52.73023
"Itzehoe, Stadt","1","18999",9.51097,53.93337
"Eisenhüttenstadt, Stadt","1","18987",14.63256,52.14218
Landsberg am Lech-Zehnerhof,"1","18860",10.86918,48.04914
Kernstadt Lehrte,"1","18858",9.97063,52.37296
"Friedrichsdorf, Stadt","1","18830",8.64273,50.26030
Bad Nauheim,"1","18748",8.73968,50.36910
Weinstadt-Endersbach,"1","18745",9.37293,48.81103
Dietzhölztal,"1","18705",8.35008,50.80738
Seckenheim,"1","18693",8.56238,49.46919
"Ilmenau, Stadt","1","18655",10.91839,50.68852
"St. Ingbert, Stadt","1","18629",7.11546,49.27835
Hemsbach,"1","18617",8.64758,49.59488
"Meckenheim, Stadt","1","18604",7.03854,50.62563
"Künzelsau, Stadt","1","18594",9.66407,49.28500
Herdorf,"1","18574",7.99249,50.78560
Weingarten,"1","18565",9.63842,47.80631
Geretsried-Gartenberg,"1","18558",11.47430,47.86720
"Ibbenbüren, Stadt","1","18505",7.71193,52.28127
"Sangerhausen, Stadt","1","18496",11.29834,51.46829
"Homburg, Kreisstadt","1","18459",7.33383,49.33115
Andernach,"1","18360",7.40541,50.42760
"Zweibrücken, Stadt","1","18342",7.36820,49.24518
"Biberach an der Riß, Stadt","1","18330",9.78244,48.09413
Vaterstetten,"1","18327",11.77831,48.10121
Peine-Peine Kernstadt,"1","18263",10.23954,52.32180
"Meißen, Stadt","1","18231",13.47691,51.16045
"Stade, Hansestadt","1","18178",9.47902,53.59272
"Geislingen an der Steige, Stadt","1","18178",9.83052,48.62016
"Deggendorf, GKSt","1","18129",12.96300,48.84091
Kelsterbach,"1","18058",8.51679,50.05833
Nauborner Straße,"1","17999",8.50620,50.54763
"Bad Oldesloe, Stadt","1","17957",10.37401,53.80764
Hemer-Oberhemer,"1","17876",7.76590,51.38479
Holtmar,"1","17853",8.03965,51.75190
"Schleswig, Stadt","1","17819",9.56003,54.51791
Werne,"1","17776",7.63149,51.66753
"Werl, Stadt","1","17753",7.90906,51.55442
Rottweil-Bettlinsbad,"1","17715",8.61928,48.16540
Hiltrup,"1","17635",7.63548,51.90529
Bad Wiessee-Sonnenbichl,"1","17628",11.74426,47.71690
"Ludwigsfelde, Stadt","1","17607",13.25072,52.30153
Bernhausen / Sielmingen,"1","17531",9.22629,48.67517
"Emmerich am Rhein, Stadt","1","17448",6.24754,51.83942
Wetter (Ruhr)-Grundschöttel,"1","17412",7.37835,51.37544
Heppenheim-Unter-Hambach,"1","17324",8.63414,49.63947
Schwalbach,"1","17270",8.53774,50.15598
Altötting-Feldhütter,"1","17239",12.68144,48.23147
"Borken, Stadt","1","17197",6.85330,51.84305
Pulheim,"1","17190",6.80768,51.00331
"Delitzsch, Stadt","1","17168",12.34199,51.52719
Winsen (Aller)-Südwinsen / Hambühren,"1","17133",9.93348,52.65454
Rhauderfehn,"1","17079",7.58932,53.12761
Lutherstadt Wittenberg,"1","17018",12.65794,51.87566
"Wiesloch, Stadt","1","16986",8.69196,49.29238
"Apolda, Stadt","1","16936",11.51569,51.02537
"Aschersleben, Stadt","1","16879",11.45853,51.75818
Neheim,"1","16875",7.96166,51.45345
Makenhof,"1","16854",9.25857,48.93926
Bruchköbel,"1","16812",8.92196,50.18364
"Schwäbisch Hall, Stadt","1","16796",9.72907,49.11058
Kaltenengers,"1","16760",7.56163,50.42466
"Korbach, Hansestadt, Kreisstadt","1","16754",8.87506,51.27361
Lauf an der Pegnitz,"1","16743",11.27719,49.51460
Eberstadt,"1","16737",8.64253,49.81735
Oberursel (Taunus),"1","16720",8.58688,50.19796
Ahrensburg,"1","16657",10.22946,53.67278
Schweinsgrube,"1","16645",8.59870,49.12424
"Bad Vilbel, Stadt","1","16634",8.73583,50.17993
Wülfrath,"1","16608",7.03666,51.28014
Sonthofen-Illersiedlung,"1","16597",10.27767,47.51676
Zittau,"1","16489",14.80579,50.89654
"Mömbris, M","1","16449",9.20297,50.07517
"Radolfzell am Bodensee, Stadt","1","16421",8.96986,47.74267
Dudweiler,"1","16368",7.03826,49.27566
"Waldkraiburg, St","1","16359",12.40093,48.20732
"Hockenheim, Stadt","1","16309",8.54913,49.31836
"Weilheim i.OB, St","1","16298",11.14427,47.84054
Völklingen,"1","16242",6.86270,49.25598
Selhof,"1","16236",7.22884,50.63637
"Garmisch-Partenkirchen, M","1","16234",11.08963,47.48917
"Alfeld (Leine), Stadt","1","16145",9.82776,51.98240
Winnenden-Schelmenholz,"1","16145",9.39891,48.88133
"Warendorf, Stadt","1","16105",7.99250,51.95147
"Wernigerode, Stadt","1","16076",10.79069,51.83557
Liblar,"1","16058",6.81575,50.81139
"Helmstedt, Stadt","1","16028",11.01426,52.22843
"Ahaus, Stadt","1","15992",7.00141,52.08076
Walldorf,"1","15990",8.57725,50.00450
"Germersheim, Stadt","1","15937",8.36565,49.21105
"Osterholz-Scharmbeck, Stadt","1","15888",8.78821,53.22832
"Neuruppin, Stadt","1","15774",12.80334,52.92262
Gemarkung Ronsdorf,"1","15774",7.20427,51.22492
Henkhausen / Elsey / Hohenlimburg,"1","15729",7.56596,51.36075
"Waren (Müritz), Stadt","1","15722",12.68630,53.51603
"Haltern am See, Stadt","1","15686",7.18014,51.74598
"Lindau (Bodensee), GKSt","1","15674",9.69628,47.55382
Werden,"1","15655",7.01597,51.38515
"Goch, Stadt","1","15640",6.15687,51.67556
"Eckernförde, Stadt","1","15608",9.83588,54.47308
Jülich,"1","15589",6.36467,50.92277
"Oelde, Stadt","1","15583",8.14793,51.82815
Roden / Fraulautern,"1","15573",6.76649,49.32998
Coswig,"1","15543",13.58736,51.13122
Wertheim,"1","15503",9.50634,49.76984
Pfungstadt,"1","15489",8.60406,49.80249
Schönau am Königssee-Kühroint,"1","15479",12.98098,47.62580
"Geldern, Stadt","1","15454",6.32440,51.51987
"Ellwangen (Jagst), Stadt","1","15437",10.12970,48.96564
Plochingen-Lettenäcker,"1","15430",9.44985,48.71248
"Metzingen, Stadt","1","15419",9.28927,48.54214
Wahnheide,"1","15408",7.09940,50.86106
"Senden, St","1","15403",10.04988,48.32699
Haßloch,"1","15401",8.25602,49.36052
"Senftenberg, Stadt","1","15360",13.99717,51.51742
"Rottenburg am Neckar, Stadt","1","15354",8.93332,48.47302
"Erkelenz, Stadt","1","15351",6.31206,51.08307
Gersthofen,"1","15301",10.87925,48.42428
Hohenheim,"1","15214",9.20805,48.71282
"Friedberg (Hessen), Kreisstadt","1","15149",8.75464,50.33479
Weener,"1","15114",7.31457,53.16838
Dülken,"1","15084",6.33287,51.25290
Eitorf,"1","15076",7.45614,50.76256
Ettlingen,"1","15062",8.40325,48.94081
"Burghausen, St","1","14978",12.82696,48.16482
"Wasserburg a.Inn, St","1","14962",12.20089,48.05791
Blumenrod,"1","14962",8.06377,50.38455
Bad-Ortschaft Süd,"1","14893",10.37167,52.04525
Starnberg-Neusöcking,"1","14861",11.33609,48.00172
Quedlinburg,"1","14794",11.14495,51.78772
"Uelzen, Hansestadt","1","14784",10.55806,52.96329
"Greven, Stadt","1","14757",7.61959,52.09559
Willich,"1","14741",6.54562,51.26571
Schmalkalden,"1","14739",10.45515,50.72146
"Schwalmstadt, Stadt","1","14726",9.20996,50.91309
Heiligenhaus-Nonnenbruch,"1","14709",6.97057,51.32521
Leinfelden,"1","14691",9.12683,48.69602
"Hennef (Sieg), Stadt","1","14680",7.27889,50.77338
Strausberg,"1","14597",13.88007,52.57184
"Crailsheim, Stadt","1","14556",10.07306,49.13058
"Northeim, Stadt","1","14512",9.99855,51.70611
Rheinstetten-Mörsch,"1","14492",8.30264,48.96901
"Gaggenau, Stadt","1","14461",8.32195,48.80196
"Limbach-Oberfrohna, Stadt","1","14444",12.76548,50.85988
Rheinzabern,"1","14356",8.26781,49.10523
"Olpe, Stadt","1","14316",7.85196,51.03037
Oberstedten,"1","14315",8.56380,50.22016
"Herrenberg, Stadt","1","14283",8.86836,48.59563
Wilthen,"1","14264",14.42234,51.08246
"Borna, Stadt","1","14188",12.49547,51.12533
"Prenzlau, Stadt","1","14153",13.86549,53.31630
Görden,"1","14151",12.51705,52.43024
"Neustadt am Rübenberge, Stadt","1","14128",9.45265,52.50502
Kerpen,"1","14119",6.69286,50.87323
Ismaning,"1","14093",11.67270,48.22286
Rathenow-Stadtrandsiedlung,"1","14074",12.34739,52.60603
"Sömmerda, Stadt","1","14053",11.12929,51.15863
Sigmaringen-Nollhof,"1","14009",9.20847,48.08497
Kettwig,"1","13969",6.94052,51.36670
Bischofsheim,"1","13964",8.81494,50.15200
"Schifferstadt, Stadt","1","13957",8.37496,49.38570
Boppard-Boppard-Buchenau,"1","13920",7.61502,50.21734
Henstedt-Ulzburg,"1","13855",9.98634,53.78741
"Emmendingen, Stadt","1","13855",7.86226,48.10832
Dallgow-Döberitz,"1","13851",13.07282,52.55809
"Kaltenkirchen, Stadt","1","13845",9.96203,53.83324
Neu Wulmstorf,"1","13823",9.79374,53.46374
"Neuburg a.d.Donau, GKSt","1","13754",11.18911,48.73223
Ladenburg,"1","13754",8.60528,49.47153
Zieverich,"1","13733",6.63690,50.94899
"Selm, Stadt","1","13721",7.46411,51.69490
Gemarkung Cronenberg-Unterkirchen,"1","13685",7.14263,51.20415
Klotzsche,"1","13626",13.77656,51.11802
Mörfelden,"1","13626",8.56411,49.97736
Grötzingen / Berghausen,"1","13604",8.51279,49.00529
Göllheim,"1","13561",8.05748,49.57497
"Kevelaer, Stadt","1","13548",6.24561,51.58305
"Döbeln, Stadt","1","13528",13.12469,51.12120
"Oberndorf am Neckar, Stadt","1","13521",8.57410,48.29831
Meitingen,"1","13510",10.84074,48.54424
"Hersbruck, St","1","13501",11.42303,49.50386
"Pfaffenhofen a.d.Ilm, St","1","13463",11.49833,48.52920
"Mechernich, Stadt","1","13385",6.64098,50.59341
Opfingen / Tiengen,"1","13362",7.71404,47.99079
Gottmadingen,"1","13357",8.74644,47.73815
Bad Zwischenahn,"1","13351",8.00285,53.18491
"Überlingen, Stadt","1","13350",9.16290,47.76720
"Weißwasser/O.L., Stadt","1","13336",14.64057,51.49905
Kolbermoor-Lohholz,"1","13336",12.05802,47.84700
Remseck am Neckar-Neckargrönigen,"1","13321",9.26639,48.87185
Achim,"1","13306",9.03306,53.01252
Mainaschaff-Kleinostheim,"1","13274",9.07500,49.99315
"Heide, Stadt","1","13259",9.09468,54.19566
Allensbach / Mittelzell / Salenstein,"1","13232",9.06308,47.69585
"Rhede, Stadt","1","13222",6.69528,51.83589
Neufahrn b.Freising,"1","13203",11.66113,48.31452
Sindorf,"1","13201",6.67426,50.90809
"Schwandorf, GKSt","1","13159",12.10674,49.32223
Uetersen,"1","13149",9.67083,53.68678
"Meiningen, Stadt","1","13136",10.41928,50.57815
"Mössingen, Stadt","1","13134",9.04370,48.40384
"Norden, Stadt","1","13112",7.20305,53.59297
"Traunstein, GKSt","1","13099",12.63689,47.87093
"Vreden, Stadt","1","13091",6.82064,52.03543
Norf,"1","13087",6.73611,51.15875
Heusenstamm,"1","13030",8.79228,50.05195
Hüls,"1","13026",6.50880,51.37258
"Moosburg a.d.Isar, St","1","13015",11.93470,48.47026
"Wermelskirchen, Stadt","1","12989",7.22015,51.13986
"Waldkirch, Stadt","1","12970",7.96334,48.09899
Obermeitingen,"1","12948",10.82418,48.16797
"Crimmitschau, Stadt","1","12892",12.38579,50.81857
"Radevormwald, Stadt auf der Höhe","1","12892",7.34876,51.20357
Bad Säckingen,"1","12850",7.94837,47.55364
Mittelheim / Frei-Weinheim,"1","12767",8.01744,49.99013
"Husum, Stadt","1","12753",9.05754,54.48295
"Bad Tölz, St","1","12731",11.56640,47.75791
Neutraubling,"1","12663",12.19956,48.98906
Wiblingen,"1","12642",9.97640,48.35399
"Staßfurt, Stadt","1","12625",11.58363,51.85544
Voerde,"1","12605",6.68674,51.59592
Guben / Gubin,"1","12576",14.71677,51.95518
Borghorst,"1","12563",7.39333,52.11959
Unterboihingen,"1","12539",9.37794,48.67012
"Papenburg, Stadt","1","12531",7.41808,53.07773
"Hann. Münden, Stadt","1","12531",9.65982,51.41380
Höchst im Odenwald,"1","12522",9.01369,49.81065
Cham-Cham-West,"1","12510",12.66103,49.22910
Poing,"1","12497",11.80771,48.17273
Lage,"1","12495",8.79591,51.99476
"Vlotho, Stadt","1","12462",8.86209,52.16594
Finthen,"1","12458",8.17560,49.98828
Bickenbach,"1","12451",8.62172,49.75175
Pohlheim-Watzenborn-Steinberg,"1","12422",8.72962,50.54032
Friedberg (Bayern),"1","12421",10.98598,48.35679
"Lohne (Oldenburg), Stadt","1","12420",8.23840,52.66704
Idstein,"1","12396",8.26681,50.21694
Baiersdorf,"1","12376",11.05928,49.65325
"Nordenham, Stadt","1","12355",8.47849,53.48675
"Annaberg-Buchholz, Stadt","1","12314",13.00975,50.58449
Freiberg am Neckar-Geisingen,"1","12312",9.18815,48.93352
"Bad Dürkheim, Stadt","1","12293",8.16700,49.45806
"Ehingen (Donau), Stadt","1","12275",9.71849,48.28705
Rissen-Altona,"1","12273",9.75845,53.58140
"Heilbad Heiligenstadt, Stadt","1","12262",10.13644,51.37751
Westerburg-Weltersburg-Willmenrod-Langendernbach-I,"1","12245",7.99206,50.54191
Bitterfeld,"1","12243",12.32412,51.62915
"Bad Arolsen, Stadt","1","12233",9.01376,51.37717
"Donaueschingen, Stadt","1","12230",8.48913,47.95490
Bönen,"1","12217",7.75541,51.59878
Walluf / Budenheim,"1","12214",8.16470,50.03007
Erkrath,"1","12213",6.90717,51.22190
"Wittenberge, Stadt","1","12203",11.74645,52.99835
"Reichenbach im Vogtland, Stadt","1","12156",12.30037,50.62650
Bad Bentheim,"1","12148",7.13495,52.29797
Glinde,"1","12118",10.21870,53.54325
"Kirchhain, Stadt","1","12102",8.90116,50.82594
Weilburg-Kubach,"1","12087",8.27082,50.49158
"Lohr a.Main, St","1","12083",9.57607,49.99552
"Eschwege, Kreisstadt","1","12047",10.04719,51.18478
"Holzminden, Stadt","1","11997",9.45608,51.82528
"Freilassing, St","1","11978",12.97683,47.83852
Wittlaer / Kalkum,"1","11977",6.74499,51.30654
Saarlouis,"1","11964",6.75881,49.30725
"Rheinbach, Stadt","1","11952",6.94313,50.62463
Heidenau-Mügeln,"1","11946",13.87121,50.97586
"Bargteheide, Stadt","1","11943",10.26513,53.73186
"Parchim, Stadt","1","11932",11.83979,53.42482
Kucknitz,"1","11924",10.81409,53.91591
"Sylt-Westerland, Germany","1","11920",8.31911,54.91153
"Wangen im Allgäu, Stadt","1","11917",9.82827,47.68978
"Luckenwalde, Stadt","1","11905",13.16734,52.09242
Quadrath-Ichendorf,"1","11903",6.68407,50.93686
"Mayen, Stadt","1","11888",7.22595,50.32595
Grassau-Reifing,"1","11873",12.47176,47.79638
Schüttorf,"1","11870",7.22275,52.32091
"Lüdinghausen, Stadt","1","11868",7.45130,51.76836
"Wolfratshausen, St","1","11858",11.43286,47.90975
"Oschatz, Stadt","1","11835",13.10355,51.29808
Attendorn,"1","11824",7.90323,51.13171
Bad Ems,"1","11822",7.71308,50.33325
"Gunzenhausen, St","1","11798",10.76553,49.11420
"Schwarzenbek, Stadt","1","11793",10.48074,53.50611
"Taunusstein, Stadt","1","11772",8.14657,50.13771
Schönberg,"1","11720",8.52289,50.18366
Gilching,"1","11719",11.29179,48.10349
"Schneeberg, Stadt","1","11706",12.63730,50.59544
"Quakenbrück, Stadt","1","11687",7.95611,52.67658
Pausitz,"1","11676",13.29917,51.30170
Saalfeld,"1","11636",11.35723,50.64373
"Dillingen/ Saar, Stadt","1","11617",6.72355,49.35424
"Warstein, Stadt","1","11606",8.35713,51.44829
Nienhagen / Wathlingen,"1","11594",10.11915,52.54740
"Sondershausen, Stadt","1","11567",10.87164,51.36849
Bornheim-Roisdorf,"1","11562",7.00187,50.75662
"Zeven, Stadt","1","11542",9.27817,53.29234
"Preetz, Stadt","1","11538",10.27445,54.23462
Winsen (Luhe)-Borstel,"1","11525",10.21025,53.35680
Bockum,"1","11473",8.15766,51.38104
"Giengen an der Brenz, Stadt","1","11472",10.23728,48.62183
"Leichlingen (Rheinland), Blütenstadt","1","11462",7.01515,51.10329
Lennestadt-Halberbracht,"1","11452",8.07820,51.10777
"Kreuztal, Stadt","1","11437",7.99703,50.96252
Denzlingen,"1","11437",7.89007,48.06925
"Alzey, Stadt","1","11424",8.10969,49.74361
Baden-Baden,"1","11416",8.24735,48.75583
"Geseke, Stadt","1","11408",8.50767,51.64089
"Auerbach/Vogtl., Stadt","1","11396",12.40111,50.50886
"Horb am Neckar, Stadt","1","11395",8.71155,48.44962
"Neustadt in Holstein, Stadt","1","11385",10.82540,54.10455
Freudenstadt-Teuchelwald,"1","11383",8.41623,48.46263
"Achern, Stadt","1","11362",8.07762,48.62525
Schriesheim,"1","11353",8.66176,49.47492
"Öhringen, Stadt","1","11352",9.50751,49.20027
"Eichstätt, GKSt","1","11352",11.18384,48.89197
"Burg, Stadt","1","11342",11.85335,52.27088
Altbach-Waldwiesen,"1","11325",9.38525,48.71889
Lüttringhausen,"1","11323",7.23727,51.21222
"Sinsheim, Stadt","1","11286",8.87796,49.25331
"Harsewinkel, Die Mähdrescherstadt","1","11278",8.22634,51.96240
Littenweiler,"1","11266",7.90001,47.98003
"Bad Harzburg, Stadt","1","11263",10.55627,51.88634
"Eisleben, Lutherstadt","1","11214",11.54208,51.53147
Hausham-Huberbergalm,"1","11189",11.84290,47.74600
"Glauchau, Stadt","1","11175",12.54402,50.81699
"Höchstadt a.d.Aisch, St","1","11132",10.81504,49.70474
"Soltau, Stadt","1","11109",9.83771,52.98394
Löttmaringhausen,"1","11108",8.28448,51.35195
Sievershausen,"1","11100",10.09995,52.37708
Tamm,"1","11097",9.13032,48.92409
"Kulmbach, GKSt","1","11083",11.45228,50.10395
Rosellen,"1","11083",6.73743,51.13000
Richterich / Laurensberg,"1","11079",6.05757,50.80695
Beeck,"1","11078",6.28748,51.13988
Gemarkung Balingen,"1","11075",8.85936,48.27613
Höxter,"1","11044",9.36977,51.77362
Luisdorf,"1","11026",7.02193,50.83136
"Bad Bramstedt, Stadt","1","11007",9.87979,53.91676
"Gescher, Glockenstadt","1","11002",7.00266,51.95295
Obereimer,"1","10993",8.07444,51.39542
Groß Glienicke,"1","10969",13.12239,52.45937
"Einbeck, Stadt","1","10966",9.87672,51.82019
"Müllheim, Stadt","1","10961",7.62315,47.80815
Dieburg,"1","10957",8.84141,49.89734
Holzwickede,"1","10944",7.61992,51.49719
Garching-Hochbrück,"1","10941",11.65335,48.24865
"Walldorf, Stadt","1","10939",8.64119,49.30527
Neviges,"1","10936",7.08428,51.30968
"Wolgast, Stadt","1","10916",13.77104,54.05625
Malsch-Christianshof,"1","10908",8.33025,48.87901
"Neu-Anspach, Stadt","1","10885",8.50887,50.29589
Dossenheim,"1","10869",8.67394,49.44957
Roggendorf / Worringen,"1","10865",6.85756,51.05640
"Aurich, Stadt","1","10846",7.48624,53.47207
"Aichach, St","1","10834",11.13394,48.45795
"Eggenfelden, St","1","10817",12.75870,48.40660
"Braunsbedra, Stadt","1","10807",11.84669,51.29330
"Damme, Stadt","1","10796",8.18714,52.51932
"Bad Salzungen, Stadt","1","10780",10.23408,50.80881
Hattersheim-Okriftel,"1","10773",8.49146,50.07084
Hage-Hagerwilde,"1","10766",7.31541,53.59319
"Stadtlohn, Stadt","1","10758",6.91679,51.99481
"Werdohl, Stadt","1","10755",7.76361,51.25500
Elversberg / Spiesen,"1","10745",7.13904,49.31607
"Mölln, Stadt","1","10742",10.68761,53.62463
"Neustrelitz, Stadt","1","10738",13.07259,53.36300
"Eutin, Stadt","1","10737",10.60928,54.13427
Mutterstadt,"1","10737",8.35698,49.44240
"Langenselbold, Stadt","1","10707",9.04104,50.18020
Lobberich,"1","10704",6.27667,51.30915
Echterdingen,"1","10700",9.16949,48.68975
"Horn-Bad Meinberg, Stadt","1","10696",8.96287,51.88473
"Lübben (Spreewald), Stadt","1","10664",13.89195,51.94030
"Meinerzhagen, Stadt","1","10661",7.64723,51.10658
Zell a. Main,"1","10660",9.87077,49.82539
Bad Bergzabern-Augspurger Mühle,"1","10633",8.00591,49.11560
Rechtsupweg,"1","10633",7.31129,53.52473
"Schlüchtern, Stadt","1","10631",9.52942,50.34387
"Telgte, Stadt","1","10626",7.78740,51.97927
"Lübbecke, Stadt","1","10616",8.61438,52.30872
Weiterstadt,"1","10607",8.58713,49.90570
"Sonneberg, Stadt","1","10607",11.16990,50.36032
"Laupheim, Stadt","1","10602",9.88564,48.23022
Vluyn,"1","10597",6.53712,51.43549
Sennestadt,"1","10573",8.58672,51.94810
"Marktoberdorf, St","1","10542",10.61743,47.77817
Horrem,"1","10516",6.71440,50.91073
"Gaildorf, Stadt","1","10501",9.76709,49.00390
Ingelheim am Rhain,"1","10476",8.06225,49.97442
"Torgau, Stadt","1","10475",12.99290,51.55732
Sachsenheim-Großsachsenheim,"1","10446",9.07155,48.96635
Süchteln,"1","10439",6.36947,51.28584
Bad Friedrichshall-Kochendorf,"1","10429",9.21069,49.23126
Rastede,"1","10424",8.19490,53.24417
Bad Laasphe / Wallau,"1","10410",8.44598,50.92821
"Groß-Gerau, Stadt","1","10409",8.48234,49.91784
"Ludwigslust, Stadt","1","10390",11.49477,53.32530
"Lauterbach (Hessen), Kreisstadt","1","10348",9.39285,50.63583
"Stockach, Stadt","1","10330",9.00644,47.85761
"Walsrode, Stadt","1","10325",9.58873,52.86293
"Markt Schwaben, M","1","10324",11.86665,48.19125
"Lengerich, Stadt","1","10323",7.85025,52.18721
"Königs Wusterhausen, Stadt","1","10275",13.61901,52.28787
Fedderwardergroden-Samaria,"1","10260",8.09763,53.58026
Ruhla-Thal,"1","10207",10.42214,50.91840
"Anklam, Stadt","1","10204",13.69358,53.84944
"Günzburg, GKSt","1","10202",10.27363,48.45037
"Renningen, Stadt","1","10167",8.93697,48.76874
Gauting,"1","10161",11.38150,48.07090
"Welzheim, Stadt","1","10136",9.63108,48.87258
"Geilenkirchen, Stadt","1","10132",6.11513,50.96865
"Brilon, Stadt","1","10126",8.56675,51.39352
"Wernau (Neckar), Stadt","1","10125",9.41840,48.69133
Geisweid,"1","10120",8.00209,50.91091
"Wurzen, Stadt","1","10100",12.74129,51.37312
"Hofgeismar, Stadt","1","10087",9.38513,51.49597
"Bad Waldsee, Stadt","1","10086",9.75528,47.92182
"Bad Pyrmont, Stadt","1","10082",9.25038,51.98414
St. Leon-Rot-St. Leon,"1","10077",8.60843,49.26469
"Bretten, Stadt","1","10056",8.71242,49.03625
"Lorsch, Karolingerstadt","1","10047",8.56694,49.64914
"Traunreut, St","1","10041",12.59463,47.96047
"Mindelheim, St","1","10010",10.49265,48.04697
"Bühl, Stadt","1","10009",8.13602,48.69599
Trostberg,"1","10008",12.56028,48.03180
Neuenstadt am Kocher,"1","9991",9.32031,49.24517
Lintorf,"1","9979",6.83010,51.33527
"Pfarrkirchen, St","1","9977",12.93895,48.43378
"Hünfeld, Konrad-Zuse-Stadt","1","9959",9.77899,50.66949
"Versmold, Stadt","1","9953",8.14539,52.03713
"Perleberg, Stadt","1","9944",11.85775,53.07501
"Großenhain, Stadt","1","9925",13.53518,51.29027
"Nittendorf, M","1","9917",11.94297,49.02703
"Nidda, Stadt","1","9915",9.01005,50.42789
Ebingen,"1","9900",9.01141,48.21461
"Rotenburg (Wümme), Stadt","1","9894",9.41761,53.11295
Denkendorf,"1","9882",9.32100,48.69828
"Herzogenaurach, St","1","9871",10.88237,49.57084
Anrath,"1","9846",6.45835,51.28108
"Bobingen, St","1","9838",10.83482,48.26987
Graben-Neudorf,"1","9827",8.48798,49.16059
"Schmallenberg, Stadt","1","9793",8.29009,51.15004
Bobbau / Wolfen-Nord,"1","9784",12.26338,51.68609
"Kellinghusen, Stadt","1","9783",9.73505,53.94439
Ochsenfurt-Kleinochsenfurt,"1","9755",10.05540,49.66794
"Bad Lauterberg im Harz, Stadt","1","9752",10.44042,51.62273
Rübezahlsiedlung,"1","9743",7.04603,52.17888
Erlenbach am Main / Wörth am Main,"1","9737",9.15624,49.80120
"Frankenberg/Sa., Stadt","1","9725",13.04348,50.90836
Heumar,"1","9724",7.08383,50.92064
"Bergen auf Rügen, Stadt","1","9701",13.42251,54.41350
"Verden (Aller), Stadt","1","9684",9.23927,52.92174
"Barsinghausen, Stadt","1","9678",9.47223,52.30439
Schwieberdingen,"1","9677",9.07554,48.87493
"Alsfeld, Stadt","1","9671",9.27232,50.74896
"Sulzbach-Rosenberg, St","1","9671",11.74608,49.49632
Heddesheim,"1","9669",8.60790,49.50874
Schwerin (Friedrichsthal),"1","9667",11.35343,53.65051
Rösrath,"1","9658",7.17301,50.89737
Pfaffenhofen-Stettenklingenhof,"1","9648",8.97669,49.06356
Bad Lippspringe,"1","9632",8.81182,51.77830
"Mittweida, Stadt, Hochschulstadt","1","9630",12.97515,50.98960
"Bad Krozingen, Stadt","1","9627",7.70210,47.91306
Groß-Zimmern-Ortsmitte,"1","9618",8.82921,49.87398
Burgsteinfurt,"1","9616",7.33687,52.14756
"Kitzingen, GKSt","1","9614",10.15951,49.73678
Neukirchen,"1","9599",6.57266,51.44794
Ingersheim-Holderhof,"1","9593",9.19112,48.96053
"Altena, Stadt","1","9591",7.67351,51.29370
"Holzkirchen, M","1","9590",11.69930,47.87895
Lendringsen,"1","9582",7.83640,51.41373
"Grevesmühlen, Stadt","1","9581",11.19492,53.86224
Leingarten,"1","9580",9.11273,49.14433
"Langenau, Stadt","1","9579",10.12173,48.49787
"Murrhardt, Stadt","1","9572",9.58346,48.97954
Osterath / Bovert,"1","9571",6.62435,51.26802
"Weißenburg i.Bay., GKSt","1","9565",10.97410,49.03117
"Bad Kissingen, GKSt","1","9564",10.07703,50.20218
Neuplanitz,"1","9561",12.46293,50.69284
"Halle (Westf.), Stadt","1","9549",8.35963,52.05827
Groß-Umstadt-Richen,"1","9547",8.92540,49.87569
"Bramsche, Stadt","1","9527",7.98647,52.40985
"Mühldorf a.Inn, St","1","9506",12.52943,48.24766
"Lübbenau/Spreewald, Stadt","1","9465",13.94806,51.86045
"Pfullendorf, Stadt","1","9453",9.25971,47.92217
Garching an der Alz,"1","9443",12.59816,48.14098
Lauenburg,"1","9435",10.54840,53.37596
Gremmendorf,"1","9424",7.67721,51.92770
Lenggries-Gilgenhöfe,"1","9416",11.57025,47.68586
"Gardelegen, Hansestadt","1","9412",11.40083,52.52522
Röthenbach an der Pegnitz-Renzenhof,"1","9410",11.24542,49.48722
Bexbach,"1","9392",7.25924,49.35686
"Bad Langensalza, Stadt","1","9387",10.64490,51.10689
Goldbach,"1","9385",9.18762,49.99926
"Greiz, Stadt","1","9379",12.20867,50.65602
"Hechingen, Stadt","1","9376",8.96157,48.34912
"Blieskastel, Stadt","1","9372",7.25988,49.24709
Oos-Obere Breite,"1","9366",8.19742,48.78247
"Oberkirch, Stadt","1","9356",8.07786,48.53077
"Salzwedel, Hansestadt","1","9350",11.16026,52.84964
"Nördlingen, GKSt","1","9344",10.49718,48.84991
Bad Schönborn-Bad Langenbrücken,"1","9338",8.64468,49.22061
Röttenbach,"1","9336",10.93309,49.67492
Neuenhagen bei Berlin,"1","9335",13.69498,52.51884
"Miesbach, St","1","9327",11.83422,47.78976
Hohen Neuendorf-Bergfelde,"1","9319",13.27546,52.66962
"Zellingen, M","1","9319",9.82223,49.90004
Wildau,"1","9301",13.62498,52.33117
"Reinheim, Stadt","1","9296",8.82907,49.83201
"Gladenbach, Stadt","1","9289",8.56848,50.76121
"Aue, Stadt","1","9283",12.70108,50.58631
"Stadthagen, Stadt","1","9278",9.19579,52.32231
"Marsberg, Stadt","1","9274",8.84307,51.46220
Jöllenbeck,"1","9270",8.52244,52.09637
"Meerane, Stadt","1","9259",12.46878,50.84861
Erlensee,"1","9227",8.98534,50.16623
"Dillingen a.d.Donau, GKSt","1","9222",10.49452,48.58230
"Friesoythe, Stadt","1","9220",7.86429,53.02803
"Fritzlar, Dom- und Kaiserstadt","1","9215",9.27857,51.13041
Holzgerlingen,"1","9214",9.02103,48.64356
Ketsch-Seehaus,"1","9193",8.53397,49.36539
Altlußheim-Aussiedlerhöfe Schuläcker,"1","9190",8.51200,49.29539
"Bad Segeberg, Stadt","1","9188",10.30071,53.94296
"Mühlacker, Stadt","1","9184",8.83989,48.94619
"Tauberbischofsheim, Stadt","1","9174",9.66966,49.61726
Rondorf,"1","9166",6.95547,50.87010
Zwiesel,"1","9158",13.23497,49.02343
Zella-Mehlis-Mehlis,"1","9145",10.66115,50.66107
"Groitzsch, Stadt","1","9144",12.26962,51.15881
"Kirn, Stadt","1","9143",7.45246,49.79686
Vöhringen,"1","9134",10.08080,48.27749
"Lauchhammer, Stadt","1","9121",13.76963,51.50113
"Bad Aibling, St","1","9107",12.00605,47.86177
"Bürstadt, Stadt","1","9077",8.46100,49.64175
"Feucht, M","1","9076",11.20930,49.37594
"Lindenberg i.Allgäu, St","1","9074",9.88704,47.60256
"Boizenburg/ Elbe, Stadt","1","9072",10.73517,53.37850
Altenkirchen-Leuzbach,"1","9066",7.64076,50.69174
"Bad Reichenhall, GKSt","1","9062",12.87622,47.72835
Augustdorf,"1","9057",8.74139,51.90790
"Bad Mergentheim, Stadt","1","9035",9.77690,49.49013
Aegidienberg,"1","9015",7.32747,50.65159
Feldkirchen / Irlich,"1","9000",7.43295,50.44771
Nußloch-Maxstollen,"1","8994",8.69569,49.32391
"Haldensleben, Stadt","1","8990",11.40324,52.28604
Finkenwerder,"1","8972",9.87183,53.53214
Recklinghausen-Suderwich,"1","8958",7.26870,51.60718
Hardt,"1","8952",7.92756,50.64132
Niedergirmes,"1","8936",8.49637,50.57897
Waltershausen,"1","8935",10.56746,50.89113
Carlsberg / Hettenleidelheim / Wattenheim,"1","8935",8.05970,49.52014
Grube Carl,"1","8932",6.76935,50.93927
"Bischofswerda, Stadt","1","8931",14.18672,51.12915
Nottuln,"1","8924",7.35368,51.92538
"Stadtallendorf, Stadt","1","8918",9.01369,50.82282
Reinfeld,"1","8884",10.48922,53.83291
Stelle,"1","8881",10.12018,53.37400
"Ennigerloh, Stadt","1","8878",8.02650,51.83966
"Bad Iburg, Stadt","1","8863",8.04631,52.15285
"Trossingen, Stadt","1","8858",8.63409,48.07260
"Vilshofen an der Donau, St","1","8835",13.17038,48.62996
"Spaichingen, Stadt","1","8831",8.73232,48.07902
"Schöningen, Stadt","1","8815",10.96404,52.13987
"Herzberg am Harz, Stadt","1","8806",10.33957,51.65477
"Blankenburg (Harz), Stadt","1","8801",10.95430,51.79691
Kirchheim b.München,"1","8800",11.75381,48.16910
Püttlingen,"1","8780",6.88641,49.28461
Haschbach am Remigiusberg,"1","8780",7.41429,49.54560
"Finsterwalde, Stadt","1","8773",13.71088,51.62823
Schleiden,"1","8770",6.48303,50.54268
"Wittstock/Dosse, Stadt","1","8769",12.48988,53.16508
"Bad Soden-Salmünster, Stadt","1","8765",9.36869,50.28138
Schönaich,"1","8754",9.06144,48.65891
"Pritzwalk, Stadt","1","8742",12.17500,53.15062
Kirrlach,"1","8737",8.54460,49.23960
Schwülper,"1","8734",10.43072,52.35698
"Glückstadt, Stadt","1","8731",9.42342,53.79595
Mülheim an der Mosel,"1","8718",7.04050,49.91899
Garrel,"1","8718",8.02969,52.95714
"Königslutter am Elm, Stadt","1","8691",10.82005,52.25330
Tailfingen,"1","8684",9.01062,48.25509
Biblis,"1","8682",8.43187,49.68631
Eching,"1","8681",11.61910,48.30015
Riegelsberg,"1","8678",6.93651,49.30849
Linkenheim-Hochstetten-Linkenheim,"1","8671",8.41315,49.12837
Wandlitz,"1","8659",13.45520,52.74000
Eschborn,"1","8647",8.57471,50.16784
Ortenberg / Glauburg,"1","8640",9.03372,50.32850
Rangsdorf,"1","8637",13.43169,52.29044
Bad Wildbad im Schwarzwald,"1","8636",8.56625,48.77209
"Schongau, St","1","8633",10.89412,47.81496
Bad Breisig-Margaretenhof,"1","8623",7.29965,50.51211
"Oelsnitz/Vogtl., Stadt","1","8622",12.16996,50.41608
Linsengericht-Altenhaßlau,"1","8612",9.19125,50.19710
"Weinsberg, Stadt","1","8608",9.28740,49.14783
Hohenstein-Ernstthal,"1","8581",12.72063,50.80172
Bingerbrück,"1","8576",7.89938,49.96793
Finnentrop,"1","8573",7.96569,51.16480
"Calbe (Saale), Stadt","1","8568",11.77805,51.90506
"Eppingen, Stadt","1","8566",8.90619,49.13726
Ottendorf-Okrilla,"1","8563",13.81091,51.18184
Tornesch,"1","8561",9.71491,53.69662
Kaldenkirchen,"1","8550",6.19695,51.31783
Werder (Havel)-Plötzin,"1","8544",12.93343,52.37814
Remshalden,"1","8544",9.43172,48.81359
Meersburg-Riedetsweiler,"1","8538",9.28285,47.69558
"Springe, Stadt","1","8537",9.55380,52.21036
"Meppen, Stadt","1","8527",7.27799,52.69250
Neuenhaus,"1","8507",6.98294,52.50555
Durmersheim,"1","8504",8.27364,48.93888
Hemmoor-Warstade,"1","8491",9.15488,53.69253
Bobenheim-Roxheim,"1","8491",8.36143,49.58339
"Kamenz, Stadt","1","8477",14.10105,51.27622
Gärtringen,"1","8476",8.89896,48.64242
"Erbach, Stadt","1","8464",9.89313,48.32181
"Butzbach, Friedrich-Ludwig-Weidig-Stadt","1","8462",8.66049,50.43564
"Bad Sobernheim, Stadt","1","8460",7.67103,49.78217
Eichwalde,"1","8453",13.62638,52.36621
Taucha-Graßdorf,"1","8450",12.49269,51.38244
"Hettstedt, Stadt","1","8444",11.51008,51.65325
"Nagold, Stadt","1","8411",8.72401,48.54233
"Münchberg, St","1","8411",11.78538,50.18826
"Wittlich, Stadt","1","8402",6.89206,49.98745
"Bad Hersfeld, Kreisstadt","1","8399",9.69457,50.87156
Friolzheim,"1","8394",8.84372,48.85515
"Schortens, Stadt","1","8388",7.94113,53.53726
"Templin, Stadt","1","8386",13.50369,53.11742
Friedrichsfeld,"1","8381",6.65542,51.62876
Ueckermünde-Klockenberg,"1","8370",14.05391,53.73373
"Pegnitz, St","1","8364",11.53999,49.74554
Rielasingen-Worblingen-Arlen,"1","8358",8.84760,47.72705
"Zülpich, Stadt","1","8350",6.64815,50.69402
"Seesen, Stadt","1","8337",10.17793,51.88977
Kandel,"1","8337",8.19230,49.08347
Lindlar-Ober Schwarzenbach,"1","8334",7.38025,51.01831
Sandhofen,"1","8327",8.44567,49.54410
"Grimmen, Stadt","1","8325",13.03281,54.10891
"Haren (Ems), Stadt","1","8323",7.23311,52.79138
Lohmar,"1","8314",7.21316,50.84062
Altenkunstadt-Woffendorf,"1","8301",11.24549,50.13197
Simmern/Hunsrück,"1","8301",7.52069,49.98703
"Dinkelsbühl, GKSt","1","8289",10.32151,49.06675
"Buchen (Odenwald), Stadt","1","8285",9.31989,49.52352
Darmsheim,"1","8280",8.94768,48.69087
Rommerskirchen,"1","8273",6.68922,51.03934
Bonlanden,"1","8269",9.21986,48.65264
"Pößneck, Stadt","1","8268",11.59704,50.69610
"Titisee-Neustadt, Stadt","1","8244",8.21136,47.91766
Neulingen,"1","8236",8.73530,48.96642
"Bad Doberan, Stadt","1","8231",11.90829,54.10451
Briedel / Reil / Zell,"1","8226",7.14636,50.03032
"Penzberg, St","1","8184",11.37528,47.75748
"Twistringen, Stadt","1","8183",8.64163,52.79551
"Brake (Unterweser), Stadt","1","8182",8.47688,53.32046
Reichertshofen,"1","8177",11.46242,48.66712
Miltenberg-Miltenberg-Nord,"1","8162",9.26878,49.70756
"Riedlingen, Stadt","1","8156",9.48573,48.15885
Wiesental,"1","8156",8.51517,49.22872
"Löningen, Stadt","1","8148",7.75949,52.73517
"Büdingen, Stadt","1","8146",9.10907,50.28544
"Sarstedt, Stadt","1","8137",9.85119,52.23507
Griesborn / Hülzweiler,"1","8125",6.81286,49.30505
"Füssen, St","1","8121",10.68846,47.57195
"Bückeburg, Stadt","1","8118",9.05048,52.25833
"Salzkotten, Stadt","1","8118",8.60508,51.66816
"Torgelow, Stadt","1","8110",14.01518,53.63086
Senne,"1","8095",8.53771,51.96398
Übach,"1","8094",6.13291,50.91225
Böhlen-Probstdeuben,"1","8091",12.39975,51.19959
Weiskirchen,"1","8088",6.81832,49.55045
Schwanewede,"1","8085",8.58904,53.21845
"Bassum, Stadt","1","8068",8.72453,52.84890
"Brunsbüttel, Stadt","1","8068",9.12543,53.89752
"Wildeshausen, Stadt","1","8062",8.42756,52.88989
Lörrach-Hauingen,"1","8053",7.68770,47.63967
"Olsberg, Stadt","1","8051",8.48187,51.35311
"Abensberg, St","1","8043",11.84472,48.81810
"Schneverdingen, Stadt","1","8037",9.79091,53.11867
Nersingen,"1","8034",10.13101,48.42679
"Mering, M","1","8020",10.98504,48.26263
Limburgerhof,"1","8010",8.38754,49.42186
Cadolzburg,"1","8009",10.86792,49.46217
"Zehdenick, Stadt","1","8002",13.33687,52.97632
Inning a.Ammersee / Eching / Greifenberg,"1","7999",11.12510,48.06212
Angelbachtal,"1","7998",8.78311,49.23280
"Rheinberg, Stadt","1","7991",6.59426,51.54453
"Radeberg, Stadt","1","7991",13.91814,51.10928
"Blaubeuren, Stadt","1","7971",9.77855,48.41225
Brinkum,"1","7960",8.78594,53.00490
"Hückeswagen, Schloss-Stadt","1","7959",7.33413,51.14703
"Schramberg, Stadt","1","7951",8.40242,48.22322
"Bad Saulgau, Stadt","1","7943",9.50208,48.01395
"Bad Berleburg, Stadt","1","7932",8.38151,51.04316
Rittsteig-Gaißa,"1","7932",13.38808,48.57672
"Ebersbach an der Fils, Stadt","1","7930",9.52452,48.71732
Höhenkirchen-Siegertsbrunn,"1","7930",11.71739,48.01967
Wasseralfingen,"1","7926",10.10219,48.86671
Oberthal,"1","7925",7.09670,49.50734
"Rehau, St","1","7924",12.03300,50.24707
Neckargartach,"1","7923",9.19804,49.16522
Seevetal,"1","7915",10.01755,53.42138
"Gehrden, Stadt","1","7899",9.60166,52.31238
Gemünden am Main,"1","7890",9.69729,50.05018
Breklum,"1","7886",8.98145,54.60737
"Ebersberg, St","1","7875",11.96091,48.07861
Raubach-Puderbach-Woldert-Niederhofen-Dernbach,"1","7872",7.61329,50.57753
"Melle, Stadt","1","7871",8.33505,52.19651
"Langenzenn, St","1","7867",10.79525,49.49129
Wulfen,"1","7863",7.03451,51.72741
Bad Neuenahr,"1","7860",7.13771,50.54568
Erbenheim,"1","7857",8.29628,50.05910
"Premnitz, Stadt","1","7856",12.34380,52.53867
Travemünde,"1","7851",10.86585,53.96648
Staffel,"1","7820",8.03397,50.40788
Steinbach-Hallenberg-Herges-Hallenberg,"1","7804",10.55759,50.69353
Jork,"1","7777",9.70054,53.52204
Raubling,"1","7761",12.11047,47.78608
"Blomberg, Stadt","1","7759",9.09936,51.94456
Wiescherhöfen,"1","7756",7.76774,51.64173
Bordesholm,"1","7753",10.03827,54.17471
Untereisesheim / Obereisesheim,"1","7748",9.19738,49.20568
Swisttal,"1","7740",6.90473,50.72407
Neuhof,"1","7738",9.62896,50.44500
Herxheim bei Landau/ Pfalz,"1","7734",8.21151,49.14707
Oberschleißheim,"1","7731",11.54803,48.25317
Sebnitz,"1","7719",14.27388,50.97294
Ziegelhausen,"1","7715",8.75743,49.42055
Friedrichsort,"1","7708",10.16673,54.39177
"Breisach am Rhein, Stadt","1","7697",7.58492,48.03358
"Balve, Stadt","1","7688",7.85861,51.32310
Herrsching am Ammersee,"1","7684",11.17191,47.99813
"Mainburg, St","1","7669",11.78398,48.64331
Schiffweiler,"1","7668",7.11908,49.36281
"Zerbst/Anhalt, Stadt","1","7645",12.08810,51.96356
Bad Liebenzell / Neuhausen,"1","7644",8.74984,48.78239
"Kierspe, Stadt","1","7635",7.59726,51.12879
Kissing,"1","7628",10.96785,48.30177
"Gernsheim, Schöfferstadt","1","7621",8.48757,49.75153
"Bopfingen, Stadt","1","7620",10.35421,48.85721
Thannhausen,"1","7599",10.46121,48.27543
Bad König,"1","7592",8.99695,49.74640
"Steinheim, Stadt","1","7589",9.09542,51.87160
"Herbrechtingen, Stadt","1","7576",10.16951,48.62825
Kaufering,"1","7561",10.85641,48.08674
"Herborn, Stadt","1","7558",8.30435,50.68270
"Lauda-Königshofen, Stadt","1","7557",9.69821,49.56938
Grevenbrück,"1","7557",8.01944,51.13825
Michendorf,"1","7551",13.04143,52.32016
"Ichenhausen, St","1","7530",10.30505,48.36957
Werlte,"1","7515",7.68027,52.85156
Wolnzach,"1","7511",11.61325,48.60880
Moorenbrunn,"1","7510",11.17331,49.40630
"Eisenberg, Stadt","1","7508",11.89590,50.96733
"Ochtrup, Stadt","1","7507",7.18809,52.20782
"Ribnitz-Damgarten, Stadt","1","7494",12.43132,54.24513
Blankenfelde-Mahlow-Blankenfelde,"1","7493",13.40481,52.33319
Kaufungen,"1","7485",9.62016,51.28484
Freital-Schweinsdorf,"1","7480",13.65021,50.99129
Uhldingen-Mühlhofen-Mühlhofen,"1","7474",9.24283,47.72900
Neuhausen a.d.F.,"1","7474",9.27373,48.67999
Burgkirchen an der Alz-Wimpasing,"1","7473",12.72176,48.16746
"Isny im Allgäu, Stadt","1","7466",10.03772,47.69411
Forst (Lausitz) / Baršć-Mexiko,"1","7462",14.64884,51.74481
Waldbronn,"1","7457",8.47425,48.92531
"Mengen, Stadt","1","7457",9.33336,48.05305
"Laichingen, Stadt","1","7455",9.68894,48.49300
"Olbernhau, Stadt","1","7450",13.34044,50.65836
"Munster, Stadt","1","7446",10.08935,52.99301
"Espelkamp, Stadt","1","7445",8.61715,52.37691
"Tirschenreuth, St","1","7428",12.33060,49.87966
Bellheim,"1","7422",8.28760,49.19249
Halle (Saale)-Heide-Nord/Blumenau,"1","7422",11.90421,51.51565
"Aulendorf, Stadt","1","7421",9.64354,47.94723
Heiden,"1","7420",6.92919,51.82064
Bestwig-Halbeswig,"1","7419",8.40214,51.36341
Wolfgang,"1","7419",9.01848,50.14254
"Xanten, Stadt","1","7413",6.45533,51.66036
"Vilsbiburg, St","1","7407",12.35844,48.45035
Mehrhoog,"1","7406",6.49539,51.73504
"Bruckmühl, M","1","7387",11.93420,47.87581
"Vaihingen an der Enz, Stadt","1","7386",8.96078,48.93089
Spelle,"1","7386",7.46713,52.36397
"Kappeln, Stadt","1","7379",9.93611,54.65434
Obertürkheim / Rüdern,"1","7378",9.27698,48.76847
"Geisenfeld, St","1","7369",11.61641,48.68311
"Regen, St","1","7363",13.12814,48.97368
Tostedt,"1","7361",9.71769,53.27727
Laufach / Sailauf,"1","7361",9.28571,50.01474
"Treuchtlingen, St","1","7341",10.91235,48.95749
Rodenbach,"1","7338",7.64045,49.47616
Plattenhardt,"1","7334",9.19272,48.65244
"Neustadt an der Orla, Stadt","1","7329",11.74245,50.73595
"Kronach, St","1","7325",11.33164,50.23941
"Elsdorf, Stadt","1","7324",6.57262,50.93511
Heroldsberg,"1","7321",11.15330,49.53092
Bad Essen,"1","7317",8.34317,52.32383
Ober-Ramstadt,"1","7314",8.74694,49.82814
Hackenbroich,"1","7313",6.81047,51.06636
"Bad Dürrenberg, Stadt","1","7312",12.07210,51.29850
"Neustadt a.d.Donau, St","1","7308",11.76881,48.81076
"Bad Belzig, Stadt","1","7308",12.59349,52.14429
"Lichtenfels, St","1","7304",11.06544,50.14179
"Meldorf, Stadt","1","7299",9.07182,54.08697
"Gundelfingen a.d.Donau, St","1","7297",10.37062,48.54568
Neuenkirchen,"1","7295",7.36682,52.23890
"Hirschaid, M","1","7294",10.98643,49.81579
Großröhrsdorf,"1","7290",14.04256,51.14626
Echzell-Reichelsheim,"1","7288",8.88594,50.37661
"Peiting, M","1","7278",10.93158,47.79515
Buchholz / Asbach,"1","7265",7.40285,50.68690
Itzum,"1","7261",9.98783,52.12732
Wickede (Ruhr),"1","7254",7.86608,51.49670
"Marktredwitz, GKSt","1","7254",12.07607,50.00196
Zwönitz-Niederzwönitz,"1","7247",12.81353,50.63534
"Burglengenfeld, St","1","7235",12.04667,49.20189
"Werdau, Stadt","1","7230",12.37768,50.73360
"Grafing b.München, St","1","7227",11.96406,48.04405
Edewecht,"1","7225",7.98409,53.12897
Nortorf-Thienbüttel,"1","7221",9.85896,54.16501
Langenberg-Mitte,"1","7221",7.11633,51.35170
"Meuselwitz, Stadt","1","7215",12.30101,51.04049
"Quickborn, Stadt","1","7200",9.90911,53.72987
"Wiesmoor, Stadt","1","7196",7.71828,53.41552
Tutzing,"1","7196",11.27347,47.90796
"Hessisch Lichtenau, Stadt","1","7185",9.71385,51.20121
Plitschard,"1","7182",6.12045,50.89083
Bruchmühlbach-Miesau-Tausendmühle,"1","7181",7.44019,49.39032
"Plattling, St","1","7180",12.86854,48.77888
Waldshut-Tiengen-Tiengen,"1","7178",8.27774,47.63405
"Zeulenroda-Triebes, Stadt","1","7178",11.98211,50.65115
Wildberg / Schönbronn / Effringen / Gültlingen,"1","7176",8.73337,48.63366
"Leutkirch im Allgäu, Stadt","1","7173",10.02447,47.82610
Michelstadt-Stockheim,"1","7167",9.00949,49.67636
"Steinheim an der Murr, Stadt","1","7167",9.27859,48.96938
"Rahden, Stadt","1","7158",8.61789,52.43122
Heinsberg,"1","7156",6.09166,51.06386
"Angermünde, Stadt","1","7153",14.00552,53.01781
"Niesky, Stadt","1","7143",14.83060,51.28963
Birkenheide,"1","7142",8.28199,49.48326
Nieder-Ramstadt,"1","7134",8.70054,49.83062
Schiefbahn,"1","7134",6.53299,51.24284
Jettingen,"1","7130",8.77952,48.57040
Steinhude,"1","7130",9.37268,52.45733
"Erbach, Kreisstadt","1","7127",9.00066,49.65679
"Bad Neustadt a.d.Saale, St","1","7124",10.20829,50.32639
Grünberg,"1","7123",8.95440,50.58255
"Bitburg, Stadt","1","7119",6.52569,49.97085
Münster,"1","7118",8.85821,49.92223
"Neustadt b.Coburg, GKSt","1","7117",11.12117,50.33008
Nordstemmen,"1","7115",9.78997,52.15485
"Bützow, Stadt","1","7115",11.97743,53.84124
Hüsten,"1","7111",7.98921,51.42695
"Osterode am Harz, Stadt","1","7104",10.24848,51.73161
"St. Georgen im Schwarzwald, Stadt","1","7102",8.33713,48.12851
Recke,"1","7101",7.71685,52.36389
"Walldürn, Stadt","1","7098",9.36170,49.58147
"Barmstedt, Stadt","1","7094",9.77497,53.78961
Dippoldiswalde,"1","7092",13.65968,50.90319
Trittau,"1","7092",10.40411,53.61017
Pfronten,"1","7087",10.55469,47.58771
"Ratzeburg, Stadt","1","7086",10.78716,53.69592
Emstek,"1","7079",8.14870,52.84597
Sprucke,"1","7078",14.67500,51.95084
Rgbg-Unterisling,"1","7072",12.14254,48.98716
Rosbach,"1","7063",8.69890,50.30180
"Lichtenstein/Sa., Stadt","1","7053",12.62456,50.75523
"Feuchtwangen, St","1","7044",10.33360,49.16908
"Wolmirstedt, Stadt","1","7040",11.62793,52.25096
Laubenheim,"1","7039",8.31373,49.96043
"Bad Bevensen, Stadt","1","7031",10.58383,53.08149
"Delbrück, Stadt","1","7027",8.56337,51.76803
Heroldsbach,"1","7026",11.01462,49.69349
Neukirch/Lausitz / Steinigtwolmsdorf,"1","7024",14.32439,51.08629
Scheeßel,"1","7022",9.48162,53.17166
"Dinklage, Stadt","1","7016",8.11912,52.66148
"Weida, Stadt","1","7010",12.05352,50.77430
"Büren, Stadt","1","7007",8.55821,51.55073
Gummersbach-Steinenbrück,"1","6996",7.55505,51.02598
Eningen unter Achalm,"1","6994",9.25625,48.48645
Urbach-Buchäcker,"1","6993",9.57576,48.81498
"Calw, Stadt","1","6992",8.74335,48.71575
Hemmingen-Hegnachhöfe,"1","6991",9.03028,48.86555
Reislingen,"1","6988",10.84154,52.42167
Lechenich,"1","6987",6.76483,50.79970
Probstheida,"1","6986",12.43571,51.30196
Freinsheim,"1","6983",8.20433,49.50390
Emmelshausen,"1","6981",7.56128,50.15069
"Bad Freienwalde (Oder), Stadt","1","6979",14.03332,52.78142
Moisling,"1","6969",10.63036,53.84061
Hude (Oldb),"1","6967",8.46192,53.10905
"Hövelhof, Sennegemeinde","1","6967",8.65349,51.82303
Weil der Stadt-Weil der Stadt (Stadt),"1","6964",8.87159,48.75310
Zetel,"1","6959",7.96011,53.41623
Weissach,"1","6945",8.91948,48.84354
"Bad Windsheim, St","1","6937",10.41412,49.50458
Buch,"1","6925",9.14702,48.94446
Reiskirchen,"1","6925",8.82542,50.59629
"Landau a.d.Isar, St","1","6920",12.69814,48.66988
"Bad Fallingbostel, Stadt","1","6917",9.69888,52.86985
Losheim am See,"1","6910",6.75986,49.50379
"Löbau, Stadt","1","6908",14.66850,51.08976
"Dießen am Ammersee, M","1","6908",11.09497,47.94963
"Elsterwerda, Stadt","1","6891",13.51962,51.46169
Schlangen,"1","6890",8.83653,51.80326
"Wilkau-Haßlau, Stadt","1","6884",12.51634,50.67669
"Rotenburg a. d. Fulda, Stadt","1","6884",9.73175,50.99451
"Hohenmölsen, Stadt","1","6884",12.10006,51.15683
"Großräschen, Stadt","1","6881",14.00418,51.59157
Birkenheide,"1","6877",8.54157,53.03514
"Bergen, Stadt","1","6858",9.96293,52.80993
"Roding, St","1","6853",12.50998,49.19548
"Leinefelde-Worbis, Stadt","1","6850",10.32316,51.37939
"Mülheim-Kärlich, Stadt","1","6849",7.49680,50.38616
Esens,"1","6847",7.61615,53.64371
Methler,"1","6846",7.60756,51.57263
Malente,"1","6841",10.55710,54.17196
"Annweiler am Trifels, Stadt","1","6836",7.96252,49.20105
Rothenburgsort,"1","6833",10.04524,53.53221
"Bad Blankenburg, Stadt","1","6825",11.27335,50.67915
Dettingen an der Erms,"1","6823",9.35261,48.52904
Pulsnitz-Vollung,"1","6823",14.02640,51.17982
