cc,rs,name,lon,lat,r1
GR,303,Μέτσοβον,21.183,39.77,176
GR,103,Άσσηρος,23.031,40.821,50
GR,103,Καμπάνης,22.916,40.889,50
GR,60,Ίβηρα,23.698,40.895,50
GR,60,Γεφύρια,22.193,39.292,50
GR,363,Φάρσαλα,22.385,39.296,303
GR,123,Πετροχώριον,21.53,39.283,50
GR,86,Περίβλεπτον,22.688,39.309,50
GR,60,Αερινόν,22.758,39.334,50
GR,72,Αγριά,23.008,39.341,50
GR,86,Βαμβακού,22.42,39.336,50
GR,72,Ισθμία,23.009,37.92,50
GR,176,Άγιοι Θεόδωροι,23.143,37.928,103
GR,86,Λουτράκιον,22.979,37.974,50
GR,147,Πύλη,21.038,40.777,60
GR,60,Νέος Οικισμός,21.201,40.623,60
GR,60,Βυσσινέα,21.311,40.622,50
GR,60,Συκορράχη,25.72,40.975,50
GR,72,Μέση,25.211,40.982,50
GR,103,Καλή,22.176,40.82,50
GR,86,Άθυρα,22.591,40.825,50
GR,72,Καλλιθέα,21.154,40.797,50
GR,86,Ποδοχώριον,24.025,40.832,50
GR,253,Νέα Πέραμος,24.304,40.838,50
GR,176,Όσσα,23.204,40.837,72
GR,60,Πρώτη,21.395,40.816,50
GR,123,Μικρόκαμπος,22.773,40.842,72
GR,72,Ακρίτας,21.302,40.815,50
GR,86,Νέα Σάντα,22.919,40.843,50
GR,147,Μελίτη,21.583,40.833,103
GR,86,Δάφνη,23.654,40.857,50
GR,176,Κεραμωτή,24.704,40.859,60
GR,86,Μουσθένη,24.113,40.861,72
GR,60,Καρυδιά,21.956,40.847,50
GR,60,Νέα Ηρακλίτσα,24.315,40.865,50
GR,147,Σοφάδες,22.098,39.337,103
GR,72,Θυμαριά,26.268,40.996,50
GR,72,Γιαννούλη,26.204,41.212,50
GR,60,Σιδηρώ,26.131,41.247,60
GR,86,Αγριάνη,26.288,41.282,60
GR,60,Νέοι Ψαθάδες,26.482,41.32,50
GR,147,Σοφικόν,26.562,41.421,60
GR,103,Λαγός,26.462,41.451,50
GR,60,Παταγή,26.43,41.484,50
GR,147,Κόρυμβος,26.196,41.354,60
GR,123,Ρούσσα,26.018,41.3,50
GR,147,Μέγα Δέρειον,26.024,41.233,147
GR,86,Λεπτοκαρυά,25.905,41.069,50
GR,72,Πλάκα,25.733,40.89,50
GR,60,Κόμαρος,25.66,40.91,60
GR,176,Περαχώρα,22.949,38.028,50
GR,72,Αγία Σωτήρα,23.025,38.053,50
GR,626,Κάρυστος,24.419,38.016,253
GR,86,Πλατανιστός,24.515,38.018,60
GR,86,Μαρμάριον,24.32,38.049,72
GR,72,Παραδείσιον,24.379,38.079,50
GR,176,Άγιος Δημήτριος,24.437,38.109,72
GR,72,Αμυγδαλέα,24.575,38.121,72
GR,86,Μικρά Βόλβη,23.561,40.677,50
GR,103,Άδενδρον,22.605,40.672,50
GR,123,Αετός,21.556,40.661,72
GR,86,Προφήτης,23.278,40.688,60
GR,60,Αγγελοχώριον,22.199,40.678,60
GR,86,Πύργοι,21.833,40.669,60
GR,103,Κρύα Βρύση,22.303,40.687,103
GR,147,Μακροχώριον,21.262,40.672,50
GR,72,Νέον Σιδηροχώριον,25.355,41.022,50
GR,176,Αισύμη,25.956,41.017,60
GR,253,Σάπαι,25.697,41.023,147
GR,72,Νέα Κεσσάνη,25.071,41.032,50
GR,60,Λοφάριον,25.573,41.03,50
GR,363,Τυχερόν,26.292,41.028,123
GR,103,Σάλπη,25.189,41.052,50
GR,86,Αμάραντα,25.499,41.05,50
GR,123,Γενισέα,24.962,41.062,60
GR,72,Σέλινον,25.073,41.069,50
GR,123,Άρατος,25.553,41.081,103
GR,123,Αρριανά,25.695,41.081,50
GR,103,Αίγειρος,25.285,41.09,72
GR,72,Λαγυνά,26.298,41.084,50
GR,60,Εύμοιρον,24.858,41.11,50
GR,60,Αμαξάδες,25.065,41.123,50
GR,435,Κομοτηνή,25.403,41.119,303
GR,103,Αχινός,22.724,38.893,60
GR,86,Αχίλλειον,22.963,39.004,50
GR,86,Πτελεός,22.953,39.052,50
GR,103,Βρύναινα,22.81,39.067,50
GR,211,Ανάβρα,22.55,39.073,123
GR,303,Τρικέριον,23.077,39.101,72
GR,123,Σούρπη,22.894,39.103,86
GR,103,Κωφοί,22.721,39.103,60
GR,72,Σκοπιά,22.468,39.156,50
GR,103,Μηλίνα,23.22,39.171,50
GR,363,Αλμυρός,22.76,39.183,176
GR,60,Προμύριον,23.286,39.191,50
GR,211,Αργαλαστή,23.218,39.226,147
GR,60,Ξινόβρυση,23.259,39.249,50
GR,103,Ναρθάκιον,22.482,39.243,50
GR,211,Νέα Αγχίαλος,22.815,39.28,86
GR,123,Συκή,23.26,39.285,50
GR,147,Καλλιφώνιον,21.962,39.277,72
GR,60,Ερέτρια,22.616,39.297,50
GR,72,Μάνη,26.402,41.41,50
GR,72,Κρυονέρι,25.426,40.904,60
GR,86,Παλαιά Κρωβύλη,25.563,40.951,50
GR,72,Καλλιθέα,21.356,39.847,50
GR,86,Δασοχώριον,21.817,39.881,50
GR,72,Κατάκαλη,21.687,39.902,50
GR,103,Κρανέα,21.28,39.898,50
GR,86,Παλιούριον,23.663,39.942,50
GR,363,Δεσκάτη,21.809,39.927,211
GR,86,Νέα Σκιώνη,23.531,39.947,50
GR,176,Καλάνδρα,23.4,39.972,60
GR,147,Καρπερόν,21.62,39.948,60
GR,60,Παλιουριά,21.729,39.957,50
GR,303,Κηπουρείον,21.361,39.953,50
GR,147,Πευκοχώριον,23.614,39.989,103
GR,60,Μοναχίτιον,21.273,39.968,50
GR,103,Ελάτη,21.822,39.98,50
GR,211,Πλαταμών,22.624,39.991,50
GR,72,Φούρκα,23.414,40.005,50
GR,72,Άγιοι Θεόδωροι,21.503,39.984,50
GR,72,Πηγαδίτσα,21.412,39.984,50
GR,60,Περιβόλιον,21.117,39.979,50
GR,60,Πολύχρονον,23.525,40.017,60
GR,72,Σκοτίνα,22.554,40.016,50
GR,86,Σπήλαιον,21.285,40.004,50
GR,103,Συκέα,23.942,40.039,103
GR,253,Αμύνταιον,21.679,40.691,147
GR,60,Μικρόν Μοναστήριον,22.547,40.708,50
GR,103,Άγιος Αθανάσιος,22.727,40.714,72
GR,86,Ανάληψις,23.174,40.72,50
GR,60,Αρσένιον,22.16,40.713,50
GR,176,Ωραιόκαστρον,22.922,40.725,50
GR,60,Άγιος Λουκάς,22.296,40.72,50
GR,86,Φλάμπουρον,21.523,40.706,50
GR,86,Πλανά,23.665,40.368,50
GR,86,Ελιά,23.737,40.145,50
GR,176,Τορώνη,23.903,39.985,50
GR,86,Δάφνη,24.224,40.215,50
GR,103,Μονή Βατοπεδίου,24.212,40.315,50
GR,147,Μονή Μεγίστης Λαύρας,24.382,40.171,103
GR,60,Νέα Ζωή,22.105,40.851,50
GR,72,Κερασέαι,21.963,40.877,50
GR,60,Σταυρός,22.369,38.901,50
GR,1297,Λαμία,22.434,38.9,435
GR,211,Στυλίς,22.616,38.913,103
GR,72,Σοφιάδα,22.251,39.206,50
GR,147,Νέον Μοναστήριον,22.275,39.241,60
GR,72,Παλαιοκερασέα,22.731,38.929,50
GR,72,Λυγαριά,22.355,38.938,50
GR,176,Πελασγία,22.84,38.948,123
GR,103,Γλύφα,22.967,38.953,50
GR,147,Δίβρη,22.454,38.975,60
GR,72,Καλαμάκιον,22.352,39,50
GR,86,Νεοχώριον,22.519,39.038,50
GR,176,Ξυνιάς,22.313,39.044,50
GR,123,Κουφάλια,22.577,40.781,103
GR,86,Ακροπόταμος,24.035,40.79,72
GR,211,Μεταξάδες,26.225,41.42,123
GR,72,Σιτοχώριον,26.355,41.461,50
GR,147,Δόξα,26.283,41.484,60
GR,1556,Ορεστιάς,26.532,41.503,626
GR,103,Βάλτος,26.355,41.538,50
GR,60,Καβύλη,26.514,41.561,50
GR,253,Κυπρίνος,26.228,41.576,103
GR,176,Νέα Βύσσα,26.543,41.584,60
GR,123,Ρίζια,26.426,41.625,72
GR,123,Πεντάλοφος,26.182,41.646,50
GR,60,Καστανέαι,26.475,41.645,50
GR,86,Πετρωτά,26.136,41.694,50
GR,103,Δίκαια,26.295,41.704,60
GR,72,Ιτέα,26.188,40.972,50
GR,72,Αρδάνιον,26.211,40.932,50
GR,72,Δορίσκος,26.118,40.868,50
GR,103,Αβδέλλα,21.127,40.007,50
GR,253,Κασσάνδρεια,23.413,40.049,147
GR,103,Φελλίον,21.533,40.024,72
GR,72,Ευρωπός,22.554,40.896,72
GR,60,Πολυπλάτανον,21.408,40.878,50
GR,176,Άψαλος,22.058,40.893,60
GR,60,Νέα Καρυά,24.709,40.905,50
GR,72,Φιλυριά,22.479,40.9,50
GR,60,Άσπρος,22.629,40.903,50
GR,103,Ελευθερούπολις,24.253,40.914,86
GR,60,Μεσοχώριον,21.513,40.884,50
GR,72,Νέον Γυναικόκαστρον,22.747,40.921,60
GR,176,Ροδολίβος,23.973,40.922,103
GR,72,Δραβήσκος,23.872,40.923,60
GR,176,Ξυλόπολις,23.179,40.927,103
GR,60,Φλάμπουρον,23.565,40.93,50
GR,103,Χρυσοχώριον,24.712,40.932,50
GR,60,Νίκη,21.419,40.909,50
GR,522,Καβάλα,24.406,40.938,253
GR,60,Πολυκάρπιον,22.018,40.926,50
GR,86,Αγία Φωτεινή,22,40.713,50
GR,103,Ξηρολίβαδον,22.082,40.467,50
GR,60,Ελάφιον,21.47,39.713,50
GR,60,Ανταρτικόν,21.206,40.758,50
GR,435,Γιαννιτσά,22.411,40.793,253
GR,103,Μαυρούδα,23.468,40.805,50
GR,103,Άλωνα,21.302,40.777,50
GR,522,Φλώρινα,21.414,40.783,176
GR,103,Κέλλα,21.688,40.788,50
GR,60,Αμμοχώριον,21.483,40.783,50
GR,72,Πέντε Βρύσαι,23.156,40.808,50
GR,363,Έδεσσα,22.05,40.801,123
GR,176,Άρνισσα,21.836,40.798,103
GR,253,Σοχός,23.356,40.817,86
GR,103,Πεύκος,20.954,40.39,60
GR,72,Χρυσοβίτσα,21.074,39.779,72
GR,147,Φραγκάδες,20.883,39.831,50
GR,176,Μηλέα,21.23,39.852,72
GR,72,Φλαμπουράριον,20.991,39.854,60
GR,253,Τσεπέλοβον,20.82,39.905,103
GR,147,Βοβούσα,21.049,39.937,60
GR,103,Βρυσοχώριον,20.887,39.999,72
GR,86,Δίστρατον,21.018,40.027,60
GR,72,Μάζιον,20.667,40.04,50
GR,435,Κόνιτσα,20.747,40.045,253
GR,86,Ελεύθερον,20.855,40.057,50
GR,60,Πηγή,20.785,40.068,50
GR,72,Αγία Παρασκευή,20.895,40.145,72
GR,253,Πύργος,20.784,40.16,50
GR,72,Πυρσόγιαννη,20.81,40.212,50
GR,103,Κεφαλοχώρι,20.886,40.24,50
GR,60,Πληκάτιον,20.769,40.296,50
GR,253,Αετομηλίτσα,20.856,40.31,123
GR,60,Ανθή,23.506,40.944,50
GR,60,Καρποχώριον,22.01,39.335,50
GR,60,Δασόλοφος,22.492,39.344,50
GR,72,Σέσκλο,22.834,39.355,60
GR,72,Μητρόπολις,21.837,39.34,50
GR,72,Πασχαλίτσα,22.209,39.356,50
GR,72,Ανθηρόν,21.459,39.348,50
GR,60,Μορφοβούνιον,21.75,39.353,60
GR,60,Γαύριο,24.737,37.884,50
GR,1297,Ερμούπολις,24.941,37.445,626
GR,303,Πλωμάριον,26.369,38.976,123
GR,211,Μύκονος,25.331,37.446,123
GR,60,Άνω Μερά,25.396,37.446,50
GR,435,Μεγάλο Χωριό,26.972,37.458,147
GR,303,Καρκινάγριον,26.02,37.518,72
GR,253,Τήνος,25.163,37.538,123
GR,86,Στενή,25.199,37.577,50
GR,123,Φούρνοι,26.481,37.577,123
GR,72,Καλλονή,25.12,37.61,50
GR,103,Χριστός,26.079,37.601,60
GR,522,Άγιος Κήρυκος,26.294,37.614,253
GR,176,Πάνορμος,25.042,37.639,86
GR,103,Εύδηλος,26.178,37.631,72
GR,253,Κορησσία,24.312,37.658,176
GR,103,Περδίκιον,26.304,37.662,50
GR,60,Πυθαγόρειο,26.943,37.691,50
GR,123,Μαραθόκαμπος,26.689,37.727,50
GR,86,Καλλιθέα,26.583,37.733,72
GR,86,Μυτιληνιοί,26.906,37.727,50
GR,123,Όρμος Κορθίου,24.95,37.772,50
GR,60,Δρακαίοι,26.611,37.76,50
GR,147,Σάμος,26.974,37.757,147
GR,72,Κοκκάριον,26.891,37.778,50
GR,72,Πιτροφός,24.876,37.814,50
GR,901,Νέον Καρλοβάσιον,26.704,37.791,435
GR,60,Άμπελος,26.801,37.802,60
GR,435,Άνδρος,24.936,37.837,211
GR,147,Μπατσί,24.787,37.857,103
GR,72,Ψέριμος,27.135,36.933,50
GR,123,Πανορμίτης,27.848,36.549,50
GR,72,Μαστιχάριον,27.076,36.849,50
GR,72,Ανάληψις,26.386,36.577,50
GR,303,Αγία Μαρίνα,26.912,35.412,123
GR,303,Χάλκη,27.611,36.222,147
GR,123,Ηραίον,26.881,37.665,50
GR,60,Δαφνών,26.08,38.347,50
GR,363,Μάρμαρον,26.108,38.544,123
GR,72,Απολλώνια,24.526,36.763,50
GR,303,Φολέγανδρος,24.92,36.628,211
GR,626,Ίος,25.282,36.723,211
GR,86,Πλατύς Γιαλός,24.73,36.932,50
GR,303,Λιβάδιον,24.512,37.142,147
GR,60,Λουτρά,24.425,37.441,50
GR,123,Κανάλα,24.436,37.346,50
GR,60,Μέριχας,24.397,37.388,50
GR,123,Πήσσαι,24.278,37.599,50
GR,123,Δήλος,25.267,37.399,50
GR,60,Πλατύς Γιαλός,25.344,37.414,50
GR,86,Άη Μιχάλης,24.92,37.488,50
GR,60,Λαούτη,25.217,37.536,50
GR,86,Τραχύ,24.503,38.959,50
GR,86,Αρκάσα,27.12,35.477,60
GR,1867,Κάρπαθος,27.212,35.507,626
GR,72,Απέριον,27.17,35.55,50
GR,211,Μεσοχώριον,27.11,35.632,60
GR,435,Όλυμπος,27.173,35.74,147
GR,123,Απόλλων,25.551,37.181,50
GR,60,Αλυκή,25.133,37,50
GR,60,Σταυροχώριον,25.942,35.077,50
GR,86,Θέρμα,25.603,40.498,60
GR,86,Λάκκωμα,25.53,40.428,50
GR,751,Καμαριώτισσα,25.474,40.476,363
GR,86,Αγία Ρουμέλη,23.96,35.23,86
GR,303,Νέος Μαρμαράς,23.784,40.095,253
GR,147,Μέγαρον,21.265,40.113,60
GR,253,Νεστόριον,21.059,40.416,103
GR,72,Καλή Βρύση,23.905,41.146,50
GR,123,Πλατανιά,24.41,41.186,72
GR,123,Λευκόγεια,23.895,41.406,50
GR,363,Κατταβία,27.768,35.954,86
GR,72,Λαχανιά,27.861,35.967,50
GR,72,Μεσαναγρός,27.821,36.012,50
GR,176,Γεννάδιον,27.923,36.024,72
GR,123,Απολακκιά,27.788,36.067,86
GR,72,Ασκληπιείον,27.93,36.072,50
GR,72,Λίνδος,28.086,36.092,50
GR,72,Προφίλια,27.846,36.099,50
GR,751,Λάρδος,28.016,36.094,103
GR,103,Μονόλιθος,27.741,36.131,50
GR,60,Σιάνα,27.779,36.154,50
GR,86,Λάερμα,27.939,36.155,60
GR,86,Μάσαρη,28.073,36.178,50
GR,1556,Μεγίστη,29.591,36.149,901
GR,176,Αρχάγγελος,28.118,36.214,72
GR,211,Έμπωνας,27.857,36.226,123
GR,103,Απόλλωνα,27.966,36.26,60
GR,363,Ανάφη,25.768,36.352,211
GR,72,Γάζιον,25.066,35.325,50
GR,522,Λεωνίδιον,22.861,37.166,176
GR,60,Ελευσίς,23.542,38.043,50
GR,123,Αιγείρα,22.356,38.148,103
GR,901,Χαλκίς,23.597,38.46,303
GR,123,Σταυρός,22.238,39.315,60
GR,103,Τσαγκαράδα,23.173,39.388,50
GR,901,Γρεβενά,21.428,40.083,211
GR,123,Βουρβουρού,23.791,40.187,72
GR,72,Μάνδρα,22.26,39.615,50
GR,123,Ασπροβάλτα,23.707,40.722,50
GR,123,Στρυμονικόν,23.315,41.043,103
GR,60,Μάταλα,24.749,34.992,50
GR,626,Ιεράπετρα,25.739,35.008,435
GR,123,Γούδουρας,26.094,35.013,60
GR,123,Μύθοι,25.573,35.036,72
GR,147,Κουτσουράς,25.944,35.034,123
GR,86,Μάλαι,25.585,35.08,50
GR,103,Ζίρος,26.14,35.076,50
GR,103,Χρυσοπηγή,25.949,35.105,50
GR,72,Παχεία Άμμος,25.802,35.11,50
GR,147,Ζάκρος,26.218,35.114,72
GR,60,Μαρωνία,26.081,35.142,50
GR,86,Κριτσά,25.645,35.159,50
GR,60,Μουτσούνα,25.586,37.079,50
GR,123,Καστράκι,25.389,37.004,60
GR,303,Φαρμακονήσιον,27.085,37.291,123
GR,103,Θεολόγος,24.692,40.66,50
GR,123,Ποταμιά,24.73,40.718,50
GR,253,Θάσος,24.709,40.779,176
GR,123,Πρίνος,24.577,40.741,72
GR,901,Λιμενάρια,24.575,40.627,147
GR,60,Κοίνυρα,24.764,40.665,50
GR,211,Σκόπελος,23.728,39.122,147
GR,60,Νέο Κλήμα,23.645,39.139,50
GR,303,Σκίαθος,23.489,39.163,303
GR,103,Γλώσσα,23.616,39.175,72
GR,72,Στάφυλος,23.744,39.085,50
GR,60,Κεντρίον,25.752,35.033,50
GR,123,Ίστρον,25.737,35.126,50
GR,60,Ελληνικά,25.723,35.229,50
GR,60,Καλόγεροι,25.671,35.032,50
GR,211,Στενή Βάλα,23.926,39.193,50
GR,60,Τρούλλος,23.421,39.143,50
GR,60,Σίσιον,25.526,35.304,50
GR,303,Αφάντου,28.162,36.294,86
GR,103,Εμπορείον,25.445,36.357,50
GR,1556,Σκύρος,24.566,38.906,253
GR,60,Ασπούς,24.568,38.878,50
GR,435,Αμοργός,25.899,36.832,253
GR,176,Αντιμάχεια,27.098,36.809,72
GR,147,Σχοινούσσα,25.519,36.87,60
GR,72,Ζηπάριον,27.205,36.875,50
GR,176,Λαγκάδα,25.999,36.906,72
GR,147,Λιναριά,24.539,38.842,50
GR,147,Δαδιά,26.225,41.129,60
GR,60,Νέον Χειμώνιον,26.553,41.451,50
GR,103,Πλάτη,26.335,41.628,60
GR,60,Διαλαμπή,25.148,41.09,50
GR,60,Γραμματικόν,23.967,38.203,50
GR,103,Κινέτα,23.213,37.969,50
GR,123,Ασμήνιον,23.198,39.003,50
GR,253,Βάρδα,21.364,38.031,86
GR,72,Ευπάλιον,21.927,38.419,60
GR,72,Ψίνθος,28.096,36.315,50
GR,86,Καλυθιαί,28.174,36.336,50
GR,176,Σορωνή,28.002,36.361,72
GR,60,Μαριτσά,28.116,36.36,50
GR,72,Θηρασία,25.344,36.434,50
GR,522,Λιβάδια,27.385,36.416,211
GR,103,Οία,25.375,36.462,50
GR,86,Ιαλυσός,28.156,36.413,50
GR,60,Μεγάλον Χωρίον,27.346,36.454,50
GR,3225,Ρόδος,28.228,36.444,1867
GR,901,Αστυπάλαια (Χώρα),26.352,36.547,363
GR,60,Νικιά,27.179,36.575,50
GR,211,Μανδράκιον,27.132,36.612,123
GR,522,Σύμη,27.839,36.613,253
GR,147,Σίκινος,25.12,36.696,103
GR,901,Αδάμας,24.445,36.726,435
GR,435,Κέφαλος,26.96,36.746,147
GR,176,Κίμωλος,24.575,36.793,72
GR,123,Αρκεσίνη,25.803,36.788,60
GR,103,Καλύβια,21.292,38.619,50
GR,60,Σαρδίνια,21.202,38.889,50
GR,103,Πατητήριον,23.863,39.145,86
GR,72,Άγιος Γεώργιος,25.485,35.167,50
GR,123,Τουρλωτή,25.94,35.159,60
GR,60,Σκοπή,26.04,35.177,50
GR,60,Πισκοκέφαλον,26.097,35.179,50
GR,363,Άγιος Νικόλαος,25.716,35.191,147
GR,103,Τζερμιάδον,25.488,35.2,60
GR,147,Παλαίκαστρον,26.253,35.198,103
GR,211,Σητεία,26.106,35.208,211
GR,103,Νεάπολις,25.606,35.256,86
GR,147,Σχίσμα,25.723,35.261,60
GR,123,Βρουχάς,25.734,35.317,50
GR,86,Πέτρα,26.176,39.328,50
GR,211,Μήθυμνα,26.175,39.368,86
GR,522,Άγιος Ευστράτιος,24.989,39.539,253
GR,123,Σκανδάλιον,25.335,39.804,50
GR,86,Κοντιάς,25.149,39.865,50
GR,1297,Μύρινα,25.063,39.874,751
GR,211,Μούδρος,25.27,39.875,123
GR,60,Ρωμανόν,25.29,39.906,50
GR,60,Άγιος Δημήτριος,25.156,39.913,50
GR,86,Κάσπακας,25.084,39.914,50
GR,103,Κοντοπούλιον,25.334,39.927,50
GR,123,Ατσική,25.225,39.947,50
GR,60,Δάφνη,25.167,39.95,50
GR,303,Παναγία,25.406,39.981,50
GR,60,Πλάκα,25.427,40.005,50
GR,72,Λισβόριον,26.218,39.105,50
GR,2240,Μυτιλήνη,26.555,39.104,1297
GR,86,Ίππειον,26.413,39.117,50
GR,72,Μεσότοπος,26.004,39.131,50
GR,86,Πυργίον,25.999,38.226,60
GR,303,Νένητα,26.094,38.24,60
GR,60,Ολύμποι,25.942,38.247,50
GR,103,Ελάτα,25.988,38.286,50
GR,60,Θυμιανά,26.133,38.313,50
GR,123,Λιθίον,26,38.331,72
GR,1556,Χίος,26.136,38.37,626
GR,72,Άγρα,26.06,39.158,72
GR,86,Πάμφιλα,26.521,39.156,50
GR,626,Ερεσός,25.934,39.167,147
GR,211,Παράκοιλα,26.141,39.169,50
GR,86,Πηγή,26.417,39.183,50
GR,86,Σίγριον,25.852,39.212,60
GR,147,Άντισσα,25.98,39.233,60
GR,103,Νέαι Κυδωνίαι,26.44,39.226,60
GR,211,Αγία Παρασκευή,26.27,39.248,123
GR,60,Φίλια,26.14,39.263,50
GR,86,Σκουτάρος,26.133,39.292,50
GR,147,Μανταμάδος,26.336,39.311,60
GR,86,Κολύμπια,28.143,36.258,50
GR,86,Μανδρικόν,27.857,36.289,50
GR,123,Λαγκάδα,26.123,38.478,50
GR,176,Βολισσός,25.926,38.484,103
GR,60,Παρπαριά,25.885,38.521,50
GR,103,Οινούσσαι,26.222,38.515,72
GR,751,Ψαρά,25.563,38.54,303
GR,147,Κουρούνια,25.913,38.567,50
GR,72,Αμάδες,26.036,38.573,50
GR,86,Σκόπελος,26.448,39.029,50
GR,72,Βρίσα,26.201,39.04,50
GR,60,Κάμπος,26.557,37.353,50
GR,176,Αρκοί,26.735,37.383,60
GR,86,Κάμπος,25.992,39.273,50
GR,103,Σκάλα Συκαμινέας,26.303,39.373,50
GR,123,Χρυσομηλέα,26.511,37.63,50
GR,60,Αρμενιστής,26.087,37.634,50
GR,72,Βρακάδες,26.03,37.574,50
GR,60,Ξυλοσύρτης,26.253,37.593,50
GR,72,Αμπελικόν,26.313,39.058,50
GR,72,Αγία Μαρίνα,26.577,39.063,50
GR,123,Πολιχνίτος,26.181,39.079,123
GR,147,Αγιάσος,26.373,39.083,86
GR,72,Ξηρόκαμπος,26.87,37.111,50
GR,60,Βαθύς,27.021,36.976,50
GR,176,Εμπορειός,26.93,37.047,50
GR,1556,Κως,27.288,36.893,626
GR,211,Κουφονήσιον,25.601,36.933,86
GR,522,Απολλωνία,24.723,36.972,211
GR,147,Κάλυμνος (Ποθαία),26.982,36.952,147
GR,103,Αντίπαρος,25.082,37.04,50
GR,123,Μάρπησσα,25.249,37.044,60
GR,147,Φιλότιον,25.498,37.05,86
GR,253,Πάρος,25.148,37.083,147
GR,60,Κινίδαρος,25.479,37.101,50
GR,522,Νάξος,25.376,37.106,303
GR,435,Δονούσα,25.794,37.101,147
GR,147,Κόρωνος,25.536,37.119,60
GR,103,Νάουσα,25.239,37.123,50
GR,60,Μέση,25.553,37.148,50
GR,253,Λειψοί,26.769,37.295,103
GR,253,Σκάλα,26.544,37.323,211
GR,86,Βάρη,24.949,37.399,50
GR,522,Κύθνος,24.431,37.413,176
GR,72,Άγιος Λέων,20.718,37.77,50
GR,435,Ζάκυνθος,20.896,37.783,303
GR,60,Πλάνος,20.864,37.817,50
GR,86,Μαρίαι,20.676,37.819,50
GR,103,Καταστάριον,20.757,37.83,72
GR,211,Βολίμαι,20.658,37.875,72
GR,60,Αγία Ειρήνη,20.752,38.122,50
GR,303,Άστρος,22.722,37.404,147
GR,123,Γιαννιτσοχώριον,21.689,37.393,50
GR,303,Μεγαλόπολις,22.135,37.401,147
GR,60,Κοιλάς,23.126,37.414,50
GR,86,Ασέα,22.261,37.421,50
GR,103,Ηλιόκαστρον,23.266,37.444,50
GR,123,Νέα Φιγαλεία,21.774,37.442,86
GR,72,Άγιος Σώστης,21.955,37.443,50
GR,103,Ελαιοχώριον,22.567,37.455,60
GR,176,Δίδυμα,23.173,37.464,50
GR,60,Ζώνη,22.12,37.462,50
GR,60,Κακόβατος,21.644,37.457,50
GR,72,Θάνας,22.368,37.473,50
GR,211,Ίρια,23.012,37.485,86
GR,72,Ξηροπήγαδον,22.725,37.485,50
GR,86,Καρίταινα,22.041,37.485,72
GR,123,Ανδρίτσαινα,21.905,37.484,123
GR,72,Λυκόχια,22.165,37.495,60
GR,303,Ζαχάρω,21.649,37.484,147
GR,72,Κολιάκιον,23.159,37.593,50
GR,72,Αδάμιον,23.073,37.573,50
GR,72,Άγιοι Ανάργυροι,23.246,37.353,50
GR,60,Κόστα,23.163,37.297,50
GR,60,Αγριλίτσα,22.598,37.623,50
GR,60,Μύλοι,22.717,37.553,50
GR,86,Καμίνιον,20.548,39.416,50
GR,103,Νεράιδα,20.438,39.526,50
GR,123,Ερατεινή,22.229,38.36,103
GR,60,Κάτω Βασιλική,21.625,38.352,60
GR,72,Ευηνοχώριον,21.537,38.36,72
GR,123,Γαλαξίδιον,22.384,38.377,50
GR,211,Μεσολόγγιον,21.431,38.369,211
GR,72,Μαραθιάς,22.015,38.395,60
GR,253,Ναύπακτος,21.831,38.394,123
GR,72,Άγιος Γεώργιος,21.542,38.395,50
GR,60,Πεντεόρια,22.316,38.411,50
GR,86,Αμυγδαλιά,22.223,38.417,50
GR,103,Βλαχάτα,20.624,38.123,86
GR,176,Πόρος,20.774,38.151,86
GR,60,Διγαλέτον,20.694,38.17,50
GR,60,Γριζάτα,20.641,38.222,50
GR,86,Καμιναράτα,20.379,38.223,72
GR,72,Φάρσα,20.476,38.229,50
GR,176,Σάμη,20.646,38.249,103
GR,60,Κοντογενάδα,20.395,38.25,50
GR,147,Καρδακάτα,20.468,38.277,50
GR,103,Αγία Ευφημία,20.597,38.302,50
GR,72,Αθέρας,20.417,38.318,50
GR,435,Ιθάκη,20.718,38.364,176
GR,72,Άσος,20.54,38.378,50
GR,86,Βασιλικιάδες,20.562,38.411,50
GR,147,Σταυρός,20.647,38.447,60
GR,1081,Τρίπολις,22.372,37.51,435
GR,103,Κιβέριον,22.731,37.523,50
GR,103,Αχλαδόκαμπος,22.581,37.522,72
GR,86,Ελληνικόν,22.073,37.52,50
GR,60,Κάτω Αμυγδαλιές,21.845,37.519,50
GR,60,Μερκοβούνιον,22.375,37.542,50
GR,103,Χρυσοβίτσιον,22.211,37.546,50
GR,103,Κάτω Σαμικόν,21.596,37.545,50
GR,72,Στεμνίτσα,22.081,37.555,50
GR,72,Καλλιθέα,21.82,37.551,60
GR,123,Ναύπλιον,22.801,37.565,50
GR,103,Λουκάς,22.46,37.566,50
GR,103,Διάσελλα,21.735,37.576,72
GR,86,Μαψός,22.86,37.842,50
GR,72,Βλασαίικα,23.032,37.837,50
GR,103,Πευκάλι,23.117,37.831,50
GR,60,Μπόρσιον,21.439,37.927,50
GR,60,Πιτσιναίικα,21.743,38.435,50
GR,72,Μηλέα,22.147,38.449,50
GR,72,Φιλοθέη,21.967,38.45,50
GR,60,Μάστρον,21.278,38.437,50
GR,86,Αιτωλικόν,21.354,38.437,50
GR,123,Μαλανδρίνον,22.238,38.456,50
GR,86,Δελφοί,22.494,38.48,50
GR,86,Αγία Ευθυμία,22.358,38.481,50
GR,123,Ποτιδάνεια,22.056,38.487,50
GR,60,Πεντάπολις,22.209,38.491,50
GR,60,Κάτω Μακρινού,21.628,38.486,50
GR,86,Πεντάλοφον,21.246,38.485,60
GR,72,Χρυσοβέργιον,21.352,38.501,50
GR,123,Σιταράλωνα,21.661,38.511,50
GR,103,Καταφύγιον,21.912,38.517,50
GR,435,Άμφισσα,22.379,38.527,253
GR,123,Λιδωρίκιον,22.204,38.527,103
GR,60,Φισκάρδον,20.575,38.46,50
GR,103,Καστός,20.91,38.571,50
GR,147,Κάλαμος,20.929,38.622,50
GR,72,Βασιλική,20.609,38.627,50
GR,86,Κατωμέριον,20.789,38.656,60
GR,103,Άγιος Πέτρος,20.601,38.665,60
GR,176,Νυδρίον,20.71,38.707,103
GR,72,Καρυά,20.649,38.759,50
GR,86,Λυγιά,20.721,38.787,50
GR,253,Λευκάς,20.707,38.833,103
GR,147,Σέκουλας,21.878,37.585,50
GR,60,Ράχαι,21.562,37.587,50
GR,253,Δημητσάνα,22.041,37.595,72
GR,86,Νέα Τίρυνς,22.82,37.608,50
GR,363,Λυγουριό,23.039,37.613,147
GR,211,Κρέστενα,21.621,37.592,86
GR,147,Νεστάνη,22.468,37.613,86
GR,123,Κάψας,22.348,37.614,50
GR,86,Παλούμπα,21.947,37.62,50
GR,103,Αρχαία Επίδαυρος,23.156,37.638,72
GR,86,Αλωνίσταινα,22.222,37.626,50
GR,363,Άργος,22.729,37.635,211
GR,60,Αγία Τριάδα,22.806,37.637,50
GR,72,Καρυά,22.547,37.639,50
GR,60,Επιτάλιον,21.495,37.626,50
GR,60,Σιμιάδες,22.336,37.647,50
GR,72,Μηλέα,22.406,37.603,50
GR,60,Περιβολάκια,22.179,37.048,50
GR,211,Γάιος (Παξοί),20.186,39.197,123
GR,86,Αντίπαξος,20.224,39.152,50
GR,72,Άγιος Νικόλαος,20.705,37.907,50
GR,72,Κοντοβάζαινα,21.899,37.797,50
GR,147,Δάρας,22.202,37.809,50
GR,253,Αθίκια,22.931,37.82,103
GR,176,Δάφνη,22.024,37.807,72
GR,253,Αμαλιάς,21.351,37.797,86
GR,303,Νεμέα,22.662,37.822,103
GR,60,Μάτιον,22.331,37.821,50
GR,72,Σταμνά,21.281,38.515,50
GR,147,Ματαράγκα,21.473,38.525,72
GR,60,Άγιος Ανδρέας,21.552,38.527,50
GR,60,Ελαιών,22.418,38.55,50
GR,72,Κροκύλειον,22.06,38.549,50
GR,60,Πετροχώριον,21.647,38.547,50
GR,303,Αστακός,21.084,38.537,123
GR,363,Τερψιθέα,21.974,38.564,86
GR,60,Ελευθεριανή,21.854,38.565,50
GR,253,Θέρμον,21.667,38.572,123
GR,103,Αγγελόκαστρον,21.296,38.567,72
GR,123,Επτάλοφος,22.492,38.595,50
GR,72,Πενταγιοί,22.053,38.592,50
GR,60,Ρίγανη,21.237,38.58,50
GR,86,Καραϊσκάκης,21.089,38.581,50
GR,103,Πλάτανος,21.792,38.601,60
GR,60,Λευκαδίτιον,22.197,38.609,50
GR,86,Παντάνασσα,21.556,38.602,60
GR,72,Κάτω Βέρβενα,22.736,37.436,50
GR,72,Πλάτανος,22.657,37.323,50
GR,103,Ρίζαι,22.466,37.446,72
GR,86,Κάνδαλος,22.366,37.415,50
GR,72,Πηγάδιον,22.921,37.07,50
GR,103,Πούλιθρα,22.885,37.109,50
GR,123,Λαύκα,22.389,37.833,50
GR,60,Κούτσιον,22.668,37.851,50
GR,72,Κακοτάριον,21.701,37.837,50
GR,86,Φίλια,22.115,37.853,50
GR,86,Πάος,21.982,37.856,50
GR,86,Φτέρη,22.045,38.899,50
GR,211,Σπερχειάς,22.126,38.908,211
GR,86,Τυμφρηστός,21.916,38.911,72
GR,72,Μακρακώμη,22.116,38.942,50
GR,103,Καστρίον,22.204,38.946,50
GR,72,Άγιος Γεώργιος,21.958,38.946,50
GR,72,Πετριτή,20.001,39.455,50
GR,72,Άγιος Ματθαίος,19.873,39.494,72
GR,72,Κοκκίνιον,19.814,39.61,50
GR,86,Λιαπάδες,19.741,39.67,50
GR,60,Σκάλα,21.842,38.423,50
GR,86,Ριγάνιον,21.772,38.484,50
GR,60,Πλατανίτης,21.781,38.37,50
GR,72,Γιαννιτσού,22.112,38.995,50
GR,176,Ροβολιάριον,21.995,39.007,50
GR,72,Παλαιά Γιαννιτσού,22.075,39.033,50
GR,103,Περιβόλιον,22.183,39.064,50
GR,72,Νέα Παύλιανη,22.399,38.77,50
GR,72,Στένωμα,21.733,38.973,50
GR,60,Τρίκλινον,21.445,38.973,50
GR,103,Νέο Χαλκιόπουλο,21.329,38.973,72
GR,72,Αγία Τριάς,21.819,38.987,60
GR,176,Δάφνη,21.726,39.034,60
GR,103,Εμπεσός,21.322,39.027,50
GR,147,Βαλαώρα,21.447,39.039,50
GR,72,Μενίδιον,21.118,39.042,50
GR,123,Φουρνά,21.876,39.061,86
GR,60,Περδικάκιον,21.362,39.05,50
GR,86,Βράχα,21.8,39.066,50
GR,72,Λημέριον,21.532,39.065,50
GR,60,Τοπόλιανα,21.445,39.07,50
GR,86,Μάραθος,21.653,39.086,50
GR,303,Γρανίτσα,21.511,39.101,103
GR,72,Βρουβιανά,21.409,39.109,50
GR,103,Αρχαία Ολυμπία,21.626,37.646,50
GR,72,Βασιλάκιον,21.761,37.649,50
GR,86,Κατάκολον,21.316,37.651,50
GR,72,Νέα Επίδαυρος,23.129,37.676,50
GR,86,Αραχναίον,22.958,37.679,60
GR,103,Βυτίνα,22.184,37.67,72
GR,72,Αρτεμίσιον,22.378,37.675,50
GR,72,Καπαρέλλιον,22.509,37.677,50
GR,103,Άγραφα,21.65,39.138,86
GR,86,Ραπτόπουλον,21.48,39.149,50
GR,60,Κέδρα,21.451,39.184,50
GR,123,Τροβάτον,21.603,39.216,50
GR,60,Παραλία Αγίων Πάντων,22.296,38.356,50
GR,103,Κουτσοπόδιον,22.713,37.684,50
GR,303,Λεβίδιον,22.297,37.683,123
GR,86,Λαγκάδια,22.029,37.682,50
GR,901,Πύργος,21.439,37.672,522
GR,303,Στούπα,22.259,36.843,123
GR,103,Αμπέλια,21.628,38.838,50
GR,86,Άγιος Γεώργιος,21.599,38.9,50
GR,86,Αυλάκιον,21.379,39.15,50
GR,72,Θύαμος,21.277,39.07,50
GR,147,Χρυσοπηγή,21.212,39.112,50
GR,72,Προφήτης Ηλίας,21.168,39.002,50
GR,147,Οθωνοί,19.407,39.842,103
GR,176,Ερεικούσσα,19.578,39.88,147
GR,86,Νύμφαι,19.784,39.755,50
GR,103,Αγία Παρασκευή,21.529,38.69,60
GR,86,Αρτοτίνα,22.034,38.7,50
GR,86,Φυτείαι,21.186,38.695,60
GR,86,Αρχοντοχώριον,21.039,38.701,60
GR,147,Λεπενού,21.292,38.71,86
GR,60,Μεσοκώμη,21.803,38.719,50
GR,147,Κανδήλα,20.949,38.705,60
GR,60,Σιτόμενα,21.531,38.717,50
GR,86,Λεύκα,21.966,38.73,50
GR,72,Καστριώτισσα,22.217,38.743,50
GR,72,Καστράκιον,21.348,38.738,50
GR,147,Δομνίστα,21.848,38.756,50
GR,123,Καστανέα,21.685,38.75,60
GR,60,Κονοπίνα,21.128,38.754,50
GR,901,Νεάπολη Βοιών,23.061,36.509,363
GR,60,Ελαφόνησος,22.978,36.509,50
GR,86,Κοίτα,22.401,36.513,50
GR,253,Κοκκάλα,22.476,36.523,72
GR,72,Άγιοι Απόστολοι,23.027,36.552,50
GR,103,Λιμήν Ιέρακος,23.084,36.787,60
GR,60,Πλύτρα,22.84,36.689,50
GR,103,Ξιφίας,23.028,36.641,50
GR,123,Γέφυρα,23.037,36.686,123
GR,435,Γεράκιον,22.708,36.991,123
GR,72,Αμπελακιώτισσα,21.887,38.613,50
GR,60,Καλλιθέα,21.614,38.624,50
GR,86,Αγιονόριον,22.88,37.754,50
GR,147,Καράτουλας,21.536,37.736,60
GR,72,Κόρφος,23.125,37.766,50
GR,103,Μηνιά,20.504,38.127,50
GR,751,Αργοστόλιον,20.487,38.179,303
GR,147,Σκάλα,20.798,38.073,60
GR,72,Άλικα,22.43,36.471,50
GR,147,Ψάριον,22.528,37.867,72
GR,123,Σιμόπουλον,21.572,37.849,60
GR,72,Λυκουρία,22.212,37.861,60
GR,103,Χαβάριον,21.386,37.849,50
GR,147,Λάμπεια,21.807,37.858,60
GR,86,Γαστούνη,21.254,37.851,72
GR,60,Κεραμιδιά,21.458,37.854,50
GR,123,Κονιάκος,22.177,38.642,50
GR,60,Κρυονέρια,21.922,38.648,50
GR,86,Διχώριον,22.068,38.653,50
GR,176,Γραβιά,22.43,38.671,103
GR,123,Αμβρακία,21.715,38.666,60
GR,72,Μπαμπίνη,21.146,38.659,50
GR,60,Κρήνη,19.686,39.685,50
GR,147,Άνω Κορακιάνα,19.796,39.708,72
GR,123,Γυμνόν,22.577,37.777,50
GR,211,Κανδήλα,22.379,37.771,86
GR,72,Γούμερον,21.62,37.762,50
GR,86,Λίμνη,22.277,37.782,50
GR,123,Σοφικόν,23.051,37.794,86
GR,176,Κούμανης,21.746,37.792,72
GR,103,Παλαιοχώριον,22.482,38.718,50
GR,123,Παύλιανη,22.338,38.741,72
GR,72,Ανατολή,22.126,38.771,50
GR,72,Νεοχώριον,22.197,38.798,50
GR,176,Αργύρια,22.055,38.798,86
GR,60,Μοσχοχώριον,22.443,38.826,50
GR,72,Δάφνη,22.631,37.888,50
GR,72,Εξαμίλια,22.928,37.896,50
GR,60,Κυλλήνη,22.472,37.898,50
GR,60,Αγρίδιον,21.99,37.892,50
GR,303,Κλειτορία,22.125,37.894,103
GR,72,Αρτοπούλα,20.689,39.497,50
GR,211,Πράμαντα,21.101,39.523,147
GR,72,Μελιγγοί,20.799,39.522,50
GR,211,Αχαράβη,19.818,39.795,103
GR,147,Μαθράκιον,19.524,39.764,86
GR,86,Κασσιόπη,19.921,39.789,60
GR,176,Λύρκεια,22.551,37.704,50
GR,72,Ηράκλεια,21.571,37.694,50
GR,72,Γαρδίκιον,21.973,38.835,50
GR,86,Ανθήλη,22.481,38.85,50
GR,60,Καστανέα,22.211,38.846,50
GR,86,Υπάτη,22.243,38.872,72
GR,60,Κανάλια,21.965,38.874,50
GR,253,Κυπάρισσος,21.482,38.769,86
GR,60,Κομπωτή,21.067,38.759,50
GR,60,Ασπρόπυργος,21.638,38.787,50
GR,72,Κρίκελλον,21.851,38.797,50
GR,176,Κατούνα,21.114,38.786,72
GR,176,Πάλαιρος,20.882,38.782,103
GR,86,Αμπέλια,21.467,38.818,50
GR,123,Μέγα Χωρίον,21.743,38.827,72
GR,72,Κεχρινιά,21.227,38.821,50
GR,72,Τρύφος,21.076,38.827,50
GR,60,Χούνη,21.536,38.841,50
GR,103,Μοναστηράκιον,20.945,38.853,50
GR,123,Ελληνικόν,20.952,39.549,50
GR,72,Άγιος Νικόλαος,20.635,39.544,50
GR,86,Καστανέα,21.305,39.31,50
GR,103,Κυψέλη,20.556,39.295,50
GR,103,Παππαδάται,20.794,39.313,50
GR,72,Ανεμορράχη,21.08,39.312,50
GR,72,Μόρφιον,20.481,39.312,50
GR,123,Ροδαυγή,20.999,39.327,50
GR,60,Παλαιοκάτουνον,21.176,39.337,50
GR,72,Καλοσκοπή,22.321,38.69,50
GR,86,Στράτος,21.318,38.668,50
GR,211,Αράχοβα,21.866,38.686,86
GR,72,Μύτικας,20.946,38.668,50
GR,123,Αθανάσιος Διάκος,22.177,38.699,123
GR,60,Βαλτεσινίκον,22.097,37.705,50
GR,86,Νεμούτα,21.791,37.701,50
GR,176,Λίμναι,22.878,37.714,72
GR,72,Παλαιόπυργος,22.345,37.712,50
GR,86,Φίχτιον,22.725,37.723,50
GR,253,Λάλας,21.719,37.71,60
GR,60,Βλαχέρνα,22.25,37.719,50
GR,60,Μαλαντρένιον,22.639,37.728,50
GR,103,Μυρτέα,21.35,37.714,60
GR,72,Αγγελόκαστρον,23.005,37.745,50
GR,176,Τρόπαια,21.958,37.732,147
GR,86,Κάτω Νησί,22.944,36.486,50
GR,72,Καλλιάνιον,21.924,37.688,50
GR,103,Περδικόβρυση,22.566,37.382,50
GR,86,Κλαύσιον,21.762,38.869,50
GR,147,Αμοργιανοί,21.348,38.867,72
GR,363,Αμφιλοχία,21.166,38.863,176
GR,86,Άγιος Νικόλαος,20.804,38.87,50
GR,72,Σπάρτον,21.106,38.903,50
GR,435,Καρπενήσιον,21.794,38.914,253
GR,60,Παλιάμπελα,20.952,38.911,50
GR,60,Αλευράδα,21.438,38.929,50
GR,123,Βόνιτσα,20.89,38.917,86
GR,60,Τριπόταμον,21.524,38.946,50
GR,147,Κρίκελλος,21.177,38.945,72
GR,103,Δυτική Φραγκίστα,21.605,38.957,103
GR,211,Λευκίμμη,20.073,39.423,103
GR,253,Κάτω Αχαΐα,21.552,38.144,86
GR,103,Άγιος Κωνσταντίνος,21.459,38.009,50
GR,60,Πετρωτόν,21.806,38.162,50
GR,60,Αρίστη,20.673,39.935,50
GR,211,Δελβινάκιον,20.462,39.933,72
GR,103,Πάπιγκον,20.719,39.969,60
GR,60,Γεροπλάτανος,20.627,39.971,50
GR,60,Ποντικάται,20.382,39.97,50
GR,60,Καλλιθέα,20.687,40.01,50
GR,147,Πωγωνιανή,20.424,40.004,50
GR,72,Κεφαλόβρυσον,20.559,40.015,72
GR,123,Δρυμάδες,20.44,40.062,50
GR,86,Τύργια,20.783,39.209,50
GR,72,Τακτικούπολις,23.372,37.545,50
GR,60,Δρυόπη,23.241,37.574,50
GR,72,Μέθανα,23.389,37.581,60
GR,123,Πέρδικα,23.455,37.692,50
GR,86,Μεγαλοχώρι,23.346,37.711,60
GR,60,Μεσαγρός,23.518,37.758,50
GR,60,Πόρτες,23.521,37.711,50
GR,60,Βαθύ,23.34,37.593,50
GR,60,Λιμενάρια,23.34,37.68,50
GR,72,Καλλονή,23.289,37.539,50
GR,253,Άνω Λιβάδιον,22.984,36.182,86
GR,103,Διακόφτι,23.076,36.262,60
GR,60,Αγία Πελαγία,22.982,36.325,50
GR,253,Κερίον,20.816,37.661,60
GR,72,Αγαλάς,20.774,37.709,50
GR,123,Μουζάκιον,20.821,37.736,50
GR,60,Καλαμάκιον,20.895,37.747,50
GR,123,Κολλίναι,22.361,37.287,60
GR,253,Καρυαί,22.501,37.291,123
GR,147,Κοπανάκι,21.818,37.289,86
GR,123,Διαβολίτσιον,21.968,37.3,60
GR,86,Καλόν Νερόν,21.698,37.297,50
GR,72,Σκορτσινός,22.248,37.297,50
GR,103,Πορτοχέλιον,23.144,37.328,50
GR,86,Άγιος Πέτρος,22.547,37.326,50
GR,103,Λεοντάριον,22.144,37.321,60
GR,60,Χράνοι,22.033,37.322,50
GR,86,Ψάριον,21.886,37.328,50
GR,103,Άγιος Ανδρέας,22.764,37.345,50
GR,72,Σιδηρόκαστρον,21.772,37.338,50
GR,86,Πάπαρης,22.261,37.365,60
GR,123,Βλαχοκερασέα,22.377,37.368,72
GR,123,Ίσαρης,22.014,37.364,50
GR,303,Κρανίδιον,23.158,37.381,176
GR,60,Αυλών,21.802,37.365,50
GR,72,Ερμιόνη,23.244,37.386,50
GR,86,Καμάραι,21.996,38.298,60
GR,72,Λεχούριον,21.931,37.95,50
GR,103,Σκιαδάς,21.684,37.883,72
GR,86,Μιδέα,22.843,37.661,50
GR,72,Τολόν,22.859,37.521,50
GR,147,Παναγιά,21.137,39.191,72
GR,123,Επάνω Σέση,21.161,39.253,50
GR,60,Ζυγός,21.087,39.207,50
GR,86,Κάτω Κρυφοβόν,20.9,39.515,50
GR,72,Άγιος Βλάσιος,20.281,39.556,50
GR,103,Κεστρίνη,20.198,39.56,50
GR,147,Πολύγυρος,20.665,39.578,60
GR,60,Κουτσελιόν,20.912,39.588,50
GR,72,Αετός,20.396,39.576,50
GR,60,Πεδινή,20.843,39.598,50
GR,72,Ραδοβίζιον,20.574,39.593,50
GR,60,Κοκκινιά,20.43,39.6,50
GR,103,Φιλιάτες,20.31,39.6,86
GR,72,Κατσικάς,20.888,39.622,50
GR,72,Δροσοχώριον,20.971,39.627,50
GR,435,Πρέβεζα,20.751,38.958,176
GR,72,Μύτικας,20.707,38.999,50
GR,147,Κορωνησία,20.916,39.016,50
GR,60,Νικόπολις,20.733,39.026,50
GR,72,Μίστρος,23.839,38.52,50
GR,123,Γκοριτσά,22.566,37.029,60
GR,72,Ανάληψις,21.968,37.021,50
GR,103,Βλαχόπουλον,21.791,37.031,50
GR,2240,Καλαμάτα,22.111,37.041,901
GR,72,Στρέφιον,21.89,37.052,60
GR,103,Ρίολος,21.463,38.056,50
GR,103,Κάτω Μαζαράκιον,21.651,38.07,72
GR,103,Πύργος,22.436,38.087,50
GR,60,Κερπινή,22.107,38.081,50
GR,60,Αμπελόκηποι,22.318,38.098,50
GR,147,Λεπτοκαρυά,20.513,39.666,86
GR,60,Κεραμίτσα,20.431,39.67,50
GR,103,Άγιοι Πάντες,20.352,39.717,50
GR,60,Δεσποτικόν,20.565,39.738,50
GR,72,Λίστα,20.468,39.743,50
GR,86,Ζίτσα,20.648,39.755,50
GR,60,Ιερομνήμη,20.578,39.774,50
GR,86,Καρυαί,20.737,39.791,72
GR,72,Αγία Μαρίνα,20.434,39.807,50
GR,60,Ασπράγγελοι,20.728,39.823,50
GR,86,Κουκλιοί,20.556,39.819,50
GR,60,Στρατίνιστα,20.481,39.856,50
GR,123,Παρακάλαμος,20.569,39.861,72
GR,60,Χαραυγή,20.397,39.868,50
GR,72,Άνω Πεδινά,20.706,39.881,50
GR,60,Καλπάκιον,20.625,39.887,50
GR,86,Κτίσματα,20.397,39.898,50
GR,123,Άγιοι Απόστολοι,24.196,38.411,60
GR,86,Παναγία,24.16,38.266,50
GR,72,Κάψαλα,24.248,38.141,50
GR,72,Παραλία Διστόμου,22.652,38.388,50
GR,72,Ανάληψις,22.833,38.409,50
GR,103,Άγιος Ιωάννης,23.26,38.502,50
GR,123,Άγιος Βασίλειος,23.143,38.18,60
GR,86,Αλυκή,23.051,38.198,50
GR,123,Δεσφίνα,22.527,38.416,60
GR,751,Ποταμός,23.289,35.881,211
GR,72,Κύθηρα,22.988,36.149,50
GR,72,Φράτσια,22.979,36.22,50
GR,435,Ποταμός,22.961,36.3,176
GR,253,Σπέτσαι,23.157,37.264,86
GR,253,Ύδρα,23.467,37.347,123
GR,86,Τροιζήν,23.362,37.497,60
GR,147,Καρατζάς,23.208,37.538,50
GR,103,Άκοβος,22.165,37.189,50
GR,72,Πέρα Μέλανα,22.882,37.21,50
GR,103,Φαρακλάδα,21.622,37.202,50
GR,86,Σελλάς,21.786,37.209,50
GR,123,Βρέσθενα,22.498,37.226,50
GR,303,Μελιγαλάς,21.969,37.223,123
GR,103,Λογκανίκος,22.251,37.231,50
GR,176,Παραλία Τυρού,22.861,37.246,60
GR,86,Αετός,21.834,37.246,50
GR,86,Τουρκολέκας,22.121,37.252,60
GR,176,Πραστός,22.685,37.263,72
GR,103,Κυπαρισσία,21.67,37.25,86
GR,176,Ελίκα,22.923,36.622,72
GR,86,Κότρωνας,22.49,36.619,72
GR,72,Πύργος Διρού,22.382,36.624,50
GR,253,Αρεόπολις,22.382,36.667,103
GR,86,Σκουτάριον,22.499,36.668,50
GR,86,Οίτυλον,22.387,36.707,50
GR,176,Παπαδιάνικα,22.861,36.715,72
GR,123,Χωσιάριον,22.495,36.712,50
GR,60,Μυρσίνη,22.45,36.75,50
GR,72,Ελαία,22.801,36.751,50
GR,435,Γύθειον,22.565,36.76,253
GR,103,Συκέα,22.943,36.764,50
GR,60,Βελανίδιον,21.508,37.889,50
GR,86,Στιμάγκα,22.701,37.908,60
GR,60,Πισσώνας,23.719,38.527,50
GR,103,Παύλος,23.094,38.531,72
GR,103,Ανθοχώριον,22.829,38.553,50
GR,60,Λάρυμνα,23.285,38.565,50
GR,103,Μαρτίνον,23.213,38.568,50
GR,60,Καθενοί,23.773,38.571,50
GR,103,Οξύλιθος,24.111,38.578,50
GR,60,Στενή Δίρφυος,23.838,38.582,50
GR,60,Τριάδα,23.713,38.582,50
GR,86,Κυρτώνη,23.04,38.586,50
GR,86,Τιθορέα,22.668,38.585,50
GR,103,Έξαρχος,22.943,38.588,60
GR,86,Πολιτικά,23.545,38.597,60
GR,60,Μακρυκάπα,23.745,38.608,50
GR,123,Κροκεαί,22.547,36.884,86
GR,60,Φαραί,21.715,38.091,50
GR,72,Κάτω Πιτσά,22.539,38.108,72
GR,176,Χαλανδρίτσα,21.783,38.107,60
GR,103,Σαγαίικα,21.471,38.107,50
GR,60,Λουσικά,21.592,38.109,50
GR,103,Λεόντιον,21.933,38.119,72
GR,60,Δερβένι,22.421,38.132,50
GR,147,Χειμαδιόν,20.597,39.166,50
GR,86,Μεσόπυργος,21.344,39.208,50
GR,86,Φιλιππιάς,20.883,39.205,72
GR,253,Καναλλάκιον,20.601,39.233,176
GR,60,Μονολίθιον,21.018,39.445,50
GR,123,Κέντρον,21.447,37.898,50
GR,123,Κάστρον,21.139,37.891,72
GR,60,Κάλφας,21.606,37.903,50
GR,103,Κεφαλάριον,22.514,37.922,50
GR,211,Ανδραβίδα,21.271,37.906,50
GR,86,Δροσιά,21.744,37.918,50
GR,626,Κόρινθος,22.928,37.939,435
GR,147,Γκούρα,22.341,37.933,72
GR,86,Ζευγολατείον,22.802,37.938,50
GR,60,Λιβάρτζιον,21.909,37.924,50
GR,72,Πριόλιθος,22.043,37.931,50
GR,103,Πλανητέρον,22.168,37.939,50
GR,1081,Άρτα,20.987,39.161,363
GR,86,Καρδαμύλη,22.233,36.889,50
GR,60,Νιάτα,22.844,36.9,50
GR,103,Γράμμουσα,22.654,36.907,50
GR,72,Γούβαι,22.752,36.911,50
GR,86,Χάραξ,22.996,36.916,50
GR,60,Κυνηγός,21.746,36.899,50
GR,72,Χράνοι,21.922,36.9,50
GR,60,Τσέρια,22.27,36.916,50
GR,435,Πύλος,21.696,36.913,123
GR,60,Δάφνιον,22.537,36.927,50
GR,103,Άγιος Δημήτριος,22.821,36.935,86
GR,176,Κάμπος,22.204,36.938,50
GR,253,Κυπαρίσσιον,22.99,36.962,72
GR,123,Ξηροκάμπιον,22.452,36.959,72
GR,72,Βρονταμάς,22.651,36.962,50
GR,211,Πεταλίδιον,21.928,36.958,86
GR,103,Χανδρινός,21.789,36.958,60
GR,86,Αβία,22.142,36.967,50
GR,103,Κρεμαστή,22.873,36.978,50
GR,72,Θεσπρωτικόν,20.783,39.253,72
GR,86,Πλάτανος,21.29,39.271,72
GR,211,Αμμότοπος,20.943,39.272,60
GR,211,Πάργα,20.401,39.285,123
GR,211,Καμένα Βούρλα,22.789,38.78,123
GR,435,Μαντούδιον,23.477,38.798,147
GR,103,Κεχριαί,23.369,38.812,50
GR,103,Ροβιαί,23.229,38.811,60
GR,176,Μώλος,22.645,38.809,86
GR,211,Λουτρά Αιδηψού,23.043,38.856,86
GR,72,Πεστά,20.917,39.462,50
GR,147,Ζωτικόν,20.675,39.462,60
GR,103,Άγναντα,21.08,39.475,50
GR,103,Πλαταριά,20.277,39.453,50
GR,147,Κοπάνη,20.849,39.479,50
GR,103,Παραμυθιά,20.513,39.465,103
GR,86,Γκρίκα,20.425,39.468,60
GR,253,Σαγιάδα,20.194,39.624,72
GR,103,Γραμμένον,20.71,39.654,50
GR,72,Λογγός,22.911,38.763,60
GR,86,Άγιος Γεώργιος,22.886,38.84,60
GR,86,Παναγία,20.883,39.345,50
GR,72,Κυψέλη,21.115,39.376,60
GR,103,Ματσούκιον,21.163,39.568,50
GR,72,Δωδωνούπολη,20.786,39.559,50
GR,72,Μελιανά,20.784,39.362,50
GR,147,Αθαμάνιον,21.215,39.375,103
GR,123,Μαργαρίτι,20.432,39.359,60
GR,103,Γαρδίκιον,20.564,39.361,86
GR,147,Πέρδικα,20.303,39.368,72
GR,363,Ρωμανός,20.7,39.385,86
GR,86,Νέα Μουσιωτίτσα,20.839,39.414,50
GR,253,Πλατανούσσα,21.011,39.417,86
GR,435,Αλιβέριον,24.038,38.41,211
GR,86,Δίστομον,22.667,38.429,60
GR,147,Γυμνόν,23.884,38.439,103
GR,211,Κιάτο,22.751,38.012,123
GR,60,Άνω Λουσοί,22.138,38,50
GR,60,Λαλιώτης,22.674,38.012,50
GR,72,Μανέσιον,21.96,38.018,50
GR,147,Ζεμενόν,22.605,38.031,50
GR,60,Χιόνα,21.695,38.017,50
GR,176,Περιθώριον,22.338,38.031,50
GR,435,Καλάβρυτα,22.111,38.032,147
GR,103,Αγία Άννα,23.399,38.859,60
GR,60,Γιάλτρα,22.976,38.864,50
GR,86,Κερασέα,23.325,38.911,50
GR,60,Ταξιάρχης,23.111,38.917,50
GR,60,Κοτσικιά,23.409,38.928,50
GR,60,Μηλέαι,23.275,38.944,50
GR,72,Βάλτα,21.625,37.102,50
GR,60,Αγριάνοι,22.588,37.129,50
GR,176,Τρίκορφον,21.874,37.131,60
GR,626,Λεβάδεια,22.874,38.436,303
GR,72,Νεοχώριον,24.114,38.449,50
GR,86,Άγιος Δημήτριος,22.998,38.45,50
GR,103,Ακραίφνιον,23.22,38.456,86
GR,86,Παρθένιον,23.961,38.476,50
GR,72,Θεολόγος,23.8,38.489,60
GR,211,Αράχοβα,22.584,38.48,86
GR,60,Κάστρον,23.162,38.493,50
GR,147,Ορχομενός,22.979,38.492,60
GR,211,Αυλωνάριον,24.121,38.503,60
GR,86,Τραχήλιον,24.007,38.511,72
GR,123,Νέα Αρτάκη,23.637,38.515,50
GR,60,Πύργος,23.034,38.515,50
GR,123,Δαύλεια,22.733,38.515,72
GR,60,Μεταμόρφωσις,22.914,36.807,50
GR,253,Μολάοι,22.853,36.805,123
GR,303,Κορώνη,21.958,36.796,176
GR,72,Πλάτσα,22.317,36.805,50
GR,86,Καλούσιον,21.8,38.033,50
GR,60,Γουμένισσα,22.032,38.061,50
GR,60,Άρλα,21.598,38.057,50
GR,176,Νεοχώριον,21.022,39.07,50
GR,211,Κανάλιον,20.695,39.069,50
GR,72,Βίγλα,20.861,39.086,50
GR,103,Ανέζα,20.923,39.087,50
GR,86,Κομπότιον,21.078,39.104,50
GR,72,Ωρεοί,23.09,38.948,50
GR,303,Ιστιαία,23.152,38.953,211
GR,176,Βασιλικά,23.356,38.965,86
GR,60,Χώρα,21.718,37.052,50
GR,253,Σπάρτη,22.43,37.075,211
GR,176,Γαργαλιάνοι,21.637,37.067,72
GR,86,Ζαραφώνα,22.643,37.09,60
GR,176,Κοσμάς,22.742,37.094,72
GR,103,Χρύσαφα,22.533,37.092,50
GR,60,Στέρνα,21.874,37.082,50
GR,72,Νέδουσα,22.233,37.144,50
GR,86,Χριστιανούπολις,21.684,37.14,50
GR,86,Παλαιοχώριον,22.715,37.158,50
GR,123,Αρφαρά,22.044,37.157,60
GR,86,Σελλασία,22.417,37.168,60
GR,72,Βασαράς,22.508,37.168,50
GR,435,Φιλιατρά,21.587,37.157,303
GR,176,Καστόρειον,22.304,37.171,86
GR,86,Αρσινόη,21.923,37.167,50
GR,103,Φοινικούς,21.807,36.808,60
GR,60,Φαλάνθη,21.897,36.824,50
GR,176,Μεθώνη,21.706,36.82,72
GR,103,Πετρίνα,22.494,36.842,50
GR,147,Ρειχέα,23.005,36.846,50
GR,211,Σκάλα,22.667,36.851,86
GR,103,Κουπιά,22.902,36.871,50
GR,123,Λογγά,21.906,36.869,50
GR,147,Άρνα,22.415,36.878,60
GR,60,Κωστακιοί,20.959,39.137,50
GR,86,Νέα Κερασούς,20.856,39.157,50
GR,123,Σκουληκαριά,21.261,39.172,86
GR,103,Λούρος,20.751,39.163,72
GR,147,Στρόπωνες,23.889,38.617,72
GR,211,Μαλεσίνα,23.23,38.622,147
GR,147,Ελάτεια,22.765,38.627,103
GR,435,Κύμη,24.104,38.635,176
GR,123,Σταυρός,23.614,38.636,50
GR,72,Κυπαρίσσιον,23.074,38.637,50
GR,86,Άρις,22.005,37.101,50
GR,86,Μουζάκιον,21.718,37.096,50
GR,147,Αλαγονία,22.246,37.108,60
GR,72,Άνω Διακοπτόν,22.23,38.136,50
GR,363,Αίγιον,22.081,38.248,211
GR,1867,Πάτραι,21.735,38.245,1297
GR,72,Κάτω Σαλμενίκον,21.941,38.266,50
GR,60,Καισάριον,22.563,37.953,50
GR,253,Πόρται,21.569,37.94,72
GR,60,Λεχαινά,21.263,37.937,50
GR,86,Κρυονέριον,22.636,37.962,50
GR,60,Μάννα,22.511,37.98,50
GR,123,Κουρτέσιον,21.318,37.979,50
GR,147,Κέρτεζη,21.994,37.98,72
GR,86,Ζαρούχλα,22.275,37.985,50
GR,147,Ερυμάνθεια,21.725,37.982,50
GR,72,Πηγάδια,21.606,38.021,50
GR,303,Αμφίκλεια,22.59,38.641,123
GR,522,Αταλάντη,22.995,38.655,123
GR,72,Γλυφάδα,23.821,38.663,50
GR,103,Ζέλιον,22.875,38.659,50
GR,60,Μόδιον,22.671,38.661,50
GR,60,Μεγαπλάτανος,23.001,38.682,50
GR,123,Λιβανάται,23.05,38.71,50
GR,103,Άγναντη,22.88,38.713,50
GR,60,Τιθρώνιον,22.581,38.713,50
GR,147,Ρεγκίνιον,22.71,38.719,60
GR,123,Προκόπιον,23.49,38.735,50
GR,147,Βλαχιά,23.666,38.744,50
GR,60,Αρκίτσα,23.032,38.744,50
GR,72,Πήλιον,23.582,38.755,60
GR,60,Κόμνινα,22.696,38.749,50
GR,72,Μενδενίτσα,22.618,38.751,50
GR,103,Λίμνη,23.318,38.765,103
GR,60,Ανώγεια,22.434,36.991,50
GR,72,Κρεμμύδια,21.781,36.992,50
GR,60,Καρίτσα,22.775,37.01,50
GR,60,Παραλία Βέργας,22.156,37.007,50
GR,72,Σκούρα,22.49,37.013,50
GR,86,Κορυφάσιον,21.684,37,50
GR,72,Λακκόπετρα,21.455,38.171,50
GR,123,Διακοπτόν,22.198,38.193,86
GR,123,Κουνινά,22.02,38.195,50
GR,60,Αυλότοπος,20.626,39.418,50
GR,123,Θεοδώριανα,21.21,39.436,50
GR,72,Σύβοτα,20.243,39.408,50
GR,123,Ρίον,21.785,38.297,50
GR,60,Λάπας,21.419,38.098,50
CY,60,Γιόλου,32.472,34.925,50
CY,522,Πόλις,32.426,35.033,123
CY,103,Δρούσεια,32.397,34.962,60
CY,103,Αργάκα,32.493,35.067,50
CY,147,Αγία Μαρίνα (Χρυσοχούς),32.534,35.111,50
CY,103,Πομός,32.545,35.16,50
CY,60,Άγιος Θεόδωρος,33.383,34.801,50
CY,176,Κοφίνου,33.391,34.827,72
CY,60,Πάνω Λεύκαρα,33.307,34.868,60
CY,86,Βάβλα,33.269,34.842,50
CY,72,Βαβατσινιά,33.23,34.893,50
CY,176,Λυθροδόντας,33.294,34.95,72
CY,86,Ποταμιά,33.446,35.042,50
CY,103,Αγιά,33.566,35.109,50
CY,176,Πέτρα του Διγενή,33.546,35.239,103
CY,147,Κλήρου,33.178,35.019,86
CY,72,Αναλιόντας,33.29,35.007,50
CY,72,Εργάτες,33.243,35.053,50
CY,123,Παλαιομέτοχο,33.191,35.125,86
CY,60,Δένεια,33.144,35.167,50
CY,60,Κοκκινοτριμιθιά,33.2,35.153,50
CY,86,Αγία Μαρίνα (Σκυλλούρας),33.129,35.227,50
CY,60,Κανλί,33.26,35.223,60
CY,86,Παλαιχώρι (Μόρφου),33.09,34.923,72
CY,60,Ξυλιάτος,33.042,35.029,50
CY,86,Νικητάρι,32.994,35.074,50
CY,72,Κάτω Μονή,33.092,35.061,50
CY,303,Ποτάμι,33.029,35.105,50
CY,211,Μόρφου,33.019,35.215,50
CY,72,Καζιβερά,32.917,35.17,72
CY,60,Συριανοχώρι,32.939,35.226,60
CY,72,Ακάκι,33.13,35.134,50
CY,60,Αστρομερίτης,33.039,35.141,60
CY,60,Μάσαρη,33.074,35.187,50
CY,86,Γαλάτα,32.899,34.997,50
CY,176,Ευρύχου,32.899,35.04,72
CY,60,Μουτουλλάς,32.826,34.984,50
CY,86,Κάμπος,32.733,35.04,86
CY,86,Αμπελικού,32.803,35.12,72
CY,86,Ελιά,32.911,35.132,60
CY,176,Κάτω Πύργος,32.686,35.182,123
CY,72,Αλεύγα,32.604,35.156,50
CY,86,Κουτσοβέντης,33.421,35.266,72
CY,211,Κρηνί,33.236,35.289,103
CY,123,Καρπάσεια,33.071,35.298,86
CY,72,Αγία Ειρήνη,32.963,35.299,72
CY,435,Λιβερά,32.954,35.383,176
CY,147,Καλογραία,33.631,35.338,147
CY,103,Κλεπίνη,33.433,35.307,103
CY,123,Άγιος Γεώργιος,33.272,35.342,103
CY,60,Αγριδάκι,33.152,35.307,60
CY,72,Πάναγρα,33.068,35.336,72
CY,86,Αμμόχωστος,33.956,35.116,50
CY,123,Αυγόρου,33.84,35.037,50
CY,72,Άχνα,33.785,35.055,50
CY,123,Αχερίτου,33.862,35.1,50
CY,253,Άγιος Σέργιος,33.874,35.196,72
CY,60,Αλόδα,33.827,35.21,60
CY,72,Σπαθαρικό,33.874,35.235,72
CY,86,Περιβόλια (Τρικώμου),33.912,35.286,86
CY,60,Σύγκραση,33.852,35.273,60
CY,103,Κούκλια,33.751,35.108,50
CY,60,Βατιλή,33.657,35.133,60
CY,103,Πραστιό,33.757,35.176,86
CY,103,Πηγή,33.759,35.224,86
CY,86,Γύψου,33.785,35.261,86
CY,103,Αφάντεια,33.587,35.159,86
CY,60,Κιάδος,33.6,35.256,60
CY,86,Άγιος Χαρίτων,33.604,35.304,86
CY,60,Άρτεμι,33.71,35.321,60
CY,363,Ακανθού,33.753,35.374,176
CY,72,Άγιος Ιάκωβος,33.814,35.327,72
CY,103,Φλαμούδι,33.857,35.397,103
CY,176,Άγιος Ηλίας,33.927,35.33,147
CY,60,Γαστριά,33.999,35.343,60
CY,72,Δαυλός,33.905,35.423,72
CY,123,Άγιος Θεόδωρος,34.029,35.367,103
CY,60,Λιβάδια,34.025,35.399,60
CY,103,Επτακώμη,34.032,35.444,50
CY,86,Κώμα του Γιαλού,34.131,35.428,50
CY,1081,Πλατανισσός,34.106,35.479,363
CY,86,Άγιος Ανδρόνικος (Καρπασίας),34.161,35.509,50
CY,60,Κορόβεια,34.273,35.512,60
CY,363,Ριζοκάρπασο,34.379,35.598,147
CY,72,Τρούλλοι,33.614,35.033,50
CY,72,Πύλα,33.693,35.015,72
CY,60,Μαζωτός,33.49,34.804,50
CY,72,Κλαυδιά,33.516,34.894,50
CY,86,Αγγλισίδες,33.456,34.853,50
CY,60,Καλό Χωριό,33.535,34.928,50
CY,86,Μοσφιλωτή,33.427,34.951,50
CY,72,Κόρνος,33.397,34.923,72
CY,86,Κόχη,33.517,34.973,50
CY,60,Ζύγι,33.338,34.729,50
CY,123,Καλαβασός,33.296,34.771,60
CY,176,Απεσιά,32.978,34.789,50
CY,176,Παρεκκλησιά,33.161,34.744,72
CY,60,Πεντάκωμο,33.242,34.741,50
CY,123,Επταγώνεια,33.158,34.846,60
CY,72,Καλό Χωριό,33.032,34.85,50
CY,86,Ακρωτήρι,32.957,34.601,50
CY,72,Αυδήμου,32.762,34.694,50
CY,60,Αλέκτορα,32.683,34.708,50
CY,72,Ανώγυρα,32.733,34.739,50
CY,253,Πισσούρι,32.702,34.671,147
CY,103,Σούνι-Ζανακιά,32.876,34.731,50
CY,72,Άλασσα,32.927,34.764,50
CY,103,Πάχνα,32.795,34.778,103
CY,86,Τριμήκληνη,32.91,34.847,50
CY,72,Δωρά,32.738,34.782,50
CY,103,Όμοδος,32.807,34.848,50
CY,147,Φοινί,32.836,34.892,86
CY,86,Πελένδρι,32.966,34.896,50
CY,435,Κυπερούντα,32.975,34.938,103
CY,72,Τάλα,32.431,34.834,50
CY,123,Κούκλια,32.575,34.709,86
CY,60,Σουσκιού,32.602,34.731,50
CY,60,Επισκοπή,32.526,34.796,50
CY,147,Χολέτρια,32.586,34.774,50
CY,60,Κοίλη,32.455,34.86,50
CY,123,Πολέμι,32.507,34.886,60
CY,60,Χούλου,32.557,34.871,50
CY,211,Πέγεια,32.381,34.884,72
CY,60,Μάρωνας,32.667,34.768,50
CY,72,Κελοκέδαρα,32.651,34.811,50
CY,103,Σαλαμιού,32.69,34.841,60
CY,60,Πενταλιά,32.621,34.856,50
CY,60,Στατός-Άγιος Φώτιος,32.609,34.893,50
CY,123,Πάνω Παναγιά,32.629,34.921,72
CY,103,Φύτη,32.544,34.928,50
CY,60,Ευρέτου,32.484,34.961,50
CY,86,Περιστερώνα,32.49,34.991,50
CY,103,Λευκωσία,33.378,35.191,50
CY,626,Παραλίμνι,34,35.032,211
CY,60,Μέσα Γειτονιά,33.03,34.721,50
CY,60,Ύψωνας,32.975,34.676,50
CY,751,Πάφος,32.406,34.78,435
CY,60,Δερύνεια,33.967,35.071,50
CY,211,Ξυλοφάγου,33.835,34.976,86
CY,176,Αθιένου,33.548,35.066,86
CY,123,Κολόσσι,32.925,34.655,50
GE,72,უგუდეთი,44.227,41.721,72
GE,60,ზუმი,42.159,42.606,50
GE,123,ნაფიჩხოვო,42.244,42.592,50
GE,176,ქვემო ბოდბე,45.876,41.554,72
GE,103,კართუბანი,46.131,41.788,50
GE,123,კაბალი,46.129,41.844,86
GE,103,კინდღი,41.317,42.808,103
GE,253,ორეხოვო,40.165,43.359,253
GE,253,ლინდა,41.109,43.024,253
GE,86,ალპანა,42.829,42.561,50
GE,147,კარელთკაარი,44.471,42.369,72
GE,60,ჭკადუაში,42,42.604,50
GE,72,მჭადიჯვარი,44.6,42.017,50
GE,103,კისტანი,45.088,42.564,72
GE,211,შატილი,45.158,42.658,72
GE,60,ხახიეთი,43.618,42.391,50
GE,86,წირქოლი,44.471,42.159,72
GE,103,ალევი,44.501,42.192,60
GE,123,მახუნჯია,41.759,42.612,72
GE,72,ჭორჭოხი,44.482,42.326,72
GE,86,წოლდა,44.31,42.172,60
GE,86,კობაძე,45.315,41.861,60
GE,72,აგარა,43.818,42.037,50
GE,147,მოჭალიეთი,44.453,42.28,86
GE,123,გდუ,44.59,42.22,50
GE,435,სამტრედია,42.348,42.164,176
GE,86,ცაიში,41.807,42.436,50
GE,60,მარცხენა რკვია,43.169,42.22,50
GE,72,მანავი,45.469,41.717,50
GE,86,ქვედა კინჩხა,42.554,42.487,50
GE,72,ქვედაჩხოროწყუ,42.111,42.491,50
GE,86,ასურეთი,44.667,41.594,50
GE,60,ოფშკვითი,42.607,42.147,50
GE,253,ბახმარო,42.324,41.851,60
GE,176,ცხრაკუდაანი,44.387,41.672,86
GE,60,გადამში,43.34,42.618,50
GE,60,საყულია,42.559,42.134,50
GE,72,პანტიანი,44.599,41.657,50
GE,123,ზედა საზანო,43.069,42.229,50
GE,72,აგარაკი,40.413,43.202,72
GE,147,ჯამპალი,41.342,43.045,147
GE,60,მიასნიკოვკა,41.43,43.036,60
GE,60,თოუმიში,41.347,42.854,60
GE,103,მუხური,41.695,42.686,103
GE,147,კურსები,42.79,42.316,60
GE,103,ქვემო ნატანები,41.813,41.949,60
GE,176,საჩხერე,43.407,42.34,72
GE,103,მოხვა,43.329,42.404,50
GE,147,აბასთუმანი,42.834,41.752,86
GE,72,თორი,43.415,41.764,50
GE,86,გორანა,41.02,43.06,86
GE,72,მთისკალთა,41.048,43.127,72
GE,72,კლდიანი,40.107,43.432,72
GE,86,ზემო ქვიშიანი,44.908,41.762,50
GE,60,ზენი,41.995,42.381,50
GE,103,ზოდი,43.309,42.345,50
GE,60,ხარაულა,42.112,41.631,50
GE,72,კეთილარი,42.175,42.143,50
GE,176,კაჩაგანი,44.929,41.341,86
GE,72,იკვლივ გორანა,45.079,41.869,50
GE,123,დერცელი,42.584,41.752,86
GE,60,ინწკირვეთი,42.235,41.718,60
GE,253,ადიგენი,42.705,41.675,86
GE,211,ასპინძა,43.249,41.575,176
GE,123,ვალე,42.876,41.618,60
GE,86,ავგია,41.591,41.576,50
GE,176,აყვარჩაფანი,41.671,42.828,176
GE,72,გერგემიში,41.256,43.085,72
GE,1081,ახალციხე,42.99,41.638,363
GE,123,გომანი,43.534,41.498,50
GE,60,ფიცარღალი,41.58,42.533,60
GE,72,შიწკვარა,40.912,43.058,72
GE,72,პატრახუწა,41.711,42.588,60
GE,72,ჟდანოვი,43.773,41.165,60
GE,176,კოდა,44.776,41.582,72
GE,86,ვეძები,45.083,42.047,50
GE,86,ჭართალი,44.678,42.271,50
GE,123,არბაჩხანი,44.865,42.314,123
GE,72,ქარქუშაანი,44.555,42.07,50
GE,103,უფურეთი,44.594,42.158,72
GE,123,ათნოხი,44.708,42.456,123
GE,60,გიორგიწმინდა,45.111,42.641,60
GE,60,ტონჩა,44.588,42.13,50
GE,176,უშარნი,44.562,42.443,176
GE,211,ჭაშა,44.536,42.029,60
GE,60,სოდევე,44.623,42.314,60
GE,72,ქმოსტი,44.912,42.536,72
GE,86,უკანაფხო,44.873,42.483,86
GE,103,წინამხარი,44.749,42.388,50
GE,60,ჩარგალი,44.931,42.322,50
GE,60,თორელაანი,44.758,42.415,50
GE,60,თვალივი,44.847,42.199,50
GE,147,ველები,44.963,42.035,60
GE,211,თიანეთი,44.968,42.109,147
GE,253,ანდაქი,45.206,42.538,253
GE,176,ტაბარუკი,44.577,41.766,72
GE,72,საჭურე,44.943,42.156,50
GE,60,ფრეზეთი,44.685,41.976,50
GE,72,ჭონტილი,44.611,42.093,50
GE,211,ჩიტაურები,44.864,41.986,103
GE,72,ფიჭვიანი,44.864,42.057,72
GE,522,დუშეთი,44.696,42.085,147
GE,253,წეროვანი,44.675,41.895,147
GE,103,მუხრანი,44.574,41.932,72
GE,86,ჩოხელნი,44.638,42.405,86
GE,60,საშევარდნო,44.894,42.243,60
GE,60,ნაფეტვრები,44.664,41.731,50
GE,123,ჭიმღა,44.883,42.639,72
GE,86,ამღა,44.926,42.669,86
GE,103,ავენისი,44.722,42.168,72
GE,72,უკანხადუ,44.989,42.572,50
GE,60,ქსოვრისი,44.516,41.991,50
GE,72,აბანოსხევი,44.761,42.007,50
GE,103,ხონისჭალა,45.214,42.585,50
GE,60,ხომი,44.93,42.379,50
GE,86,თრანი,44.97,41.938,50
GE,103,ახადი,45.09,42.405,103
GE,86,ხახმატი,45.01,42.528,50
GE,103,უბანი,44.78,42.238,103
GE,60,სიმონიანთხევი,44.909,42.002,50
GE,60,მათურა,45.072,42.443,50
GE,72,გაიბოტენი,44.593,42.62,72
GE,86,წილკანი,44.653,41.952,50
GE,72,მისაქციელი,44.74,41.948,50
GE,86,ბურსაჭირი,44.732,42.493,86
GE,86,აბასთუმანი,41.881,42.395,50
GE,435,ანაკლია,41.566,42.395,50
GE,86,ჭიკაანი,45.922,41.88,50
GE,86,ომალო,45.32,42.185,50
GE,303,ხონი,42.422,42.325,147
GE,176,ზეკარი,42.91,41.942,86
GE,86,კაკასხიდი,42.914,41.983,50
GE,103,ხარაბოული,42.525,42.396,86
GE,103,სირიაჩქონი,42.012,42.18,60
GE,123,ოფიტარა,42.654,42.508,50
GE,211,ზუბი,42.672,42.567,86
GE,123,ქედქედი,41.755,41.513,60
GE,147,არ-სარვანი,44.159,41.698,50
GE,60,მუხური,42.175,42.633,50
GE,86,ზემო ახკალაფა,44.274,41.499,60
GE,86,მახალაკიძეები,42.314,41.551,50
GE,176,უწერა,43.544,42.636,60
GE,103,აბჟააფთრა,41.521,42.746,103
GE,303,ირგანჩაი,44.141,41.207,103
GE,123,შუა სურები,42.403,41.977,50
GE,86,ქვალონი,41.653,42.787,86
GE,123,მაღლაკი,42.561,42.259,50
GE,72,ღანირი,42.352,42.253,50
GE,147,ნიკორწმინდა,43.089,42.461,50
GE,147,კორბოული,43.47,42.237,72
GE,363,ოზურგეთი,42,41.926,147
GE,103,ნარაზენი,41.943,42.426,60
GE,123,დუცხუნი,42.474,42.012,50
GE,176,მანდაეთი,43.331,42.185,60
GE,147,თხუბუნი,41.073,42.965,147
GE,176,წნორი,45.978,41.619,123
GE,60,ძველი აბაშა,42.221,42.241,50
GE,363,წალკა,44.091,41.595,103
GE,72,წესი,43.201,42.539,50
GE,176,ინდურთა,45.436,42.447,176
GE,176,უსგვირი,42.415,42.952,72
GE,103,ძველი სენაკი,42.142,42.295,50
GE,86,მახაში,42.745,42.607,50
GE,60,სავანე,43.469,42.311,50
GE,103,ფიჩორი,41.565,42.451,50
GE,103,ატენი,44.109,41.926,50
GE,363,ზემო ახალსოფელი,44.098,41.794,147
GE,147,კარალეთი,44.093,42.062,60
GE,72,ღვარები,44.014,41.93,50
GE,60,ბიისი,43.98,41.866,50
GE,60,შავშვები,44.228,42.023,50
GE,211,მეჯვრისხევი,44.211,42.134,86
GE,103,ზეღდულეთი,44.224,42.054,50
GE,103,ტუსრევი,43.888,41.854,50
GE,103,ბობნევი,44.006,41.89,50
GE,103,საქაშეთი,43.971,42.092,50
GE,86,დიდთავი,44.144,41.822,86
GE,103,ლევიტანა,43.851,41.817,86
GE,60,დიდი ჭვარები,44.049,41.78,60
GE,60,ბერბუკი,44.129,42.017,50
GE,86,შინდისი,44.015,42.128,60
GE,86,ბელოთი,44.128,42.298,72
GE,72,ვანათი,44.053,42.286,50
GE,72,ჭარები,44.12,42.266,50
GE,123,ძარწემი,43.961,42.304,86
GE,363,აწრისხევი,44.223,42.296,86
GE,147,ალიბარი,43.756,42.205,60
GE,72,თერეგვანი,43.769,42.236,72
GE,60,არკნეთი,43.849,42.224,50
GE,147,მერეთი,44.079,42.224,50
GE,86,ხურვალეთი,44.308,42.066,50
GE,123,ტყვიავი,44.067,42.159,50
GE,60,ახალდაბა,44.042,42.049,50
GE,60,ჯირღული,41.384,42.892,60
GE,72,ჩხორთოლი,41.741,42.763,72
GE,176,ყულევი,41.653,42.271,72
GE,60,მშრალხევი,44.888,41.853,50
GE,60,კევლიანი,45.001,41.878,50
GE,60,მამკოდა,44.852,41.836,50
GE,435,ყორულდაში,43.143,42.916,253
GE,86,ხოფური,42.762,42.731,50
GE,72,ცანა,43.146,42.88,72
GE,103,ხრეითი,43.181,42.347,72
GE,72,მაღრაანი,45.354,42.101,50
GE,522,ცაგერა,41.42,42.778,211
GE,60,საწირე,42.937,42.335,50
GE,60,სანთა,44.015,41.651,50
GE,303,იდლიანი,42.091,42.93,176
GE,86,გორელოვკა,43.694,41.215,50
GE,86,ზიკილია,43.113,41.695,50
GE,2688,ბათუმი,41.64,41.646,1556
GE,211,ბაღდათი,42.825,42.07,103
GE,72,კულაში,42.343,42.204,50
GE,60,ოკამი,43.346,41.321,50
GE,211,ჩაქვი,41.735,41.719,72
GE,86,მეორე სვირი,42.929,42.102,50
GE,60,ზარიძეები,44.898,42.136,50
GE,211,ბეტისჩრდილი,44.919,42.413,211
GE,303,ბორჯომი,43.378,41.84,176
GE,176,ახალდაბა,43.483,41.931,50
GE,60,ანდეზიტი,43.472,41.735,50
GE,60,ვაკიჯვარი,42.157,41.91,50
GE,72,ჯვარისა,42.819,42.384,50
GE,147,გურნა,42.863,42.403,60
GE,123,მეორე გუდავა,41.543,42.646,123
GE,363,აბღარხუქი,40.704,43.115,363
GE,253,ინკითი,40.302,43.175,253
GE,86,ოჯიბინა,41.142,42.818,86
GE,72,ფარნაუთი,41.17,42.944,72
GE,253,კასრისწყალი,46.465,41.288,72
GE,72,მუხურა,43.076,42.331,50
GE,72,ცუცხვათი,42.864,42.289,50
GE,60,ზენითი,41.904,41.817,50
GE,86,ღები,43.507,42.764,50
GE,123,იენაში,42.63,43.013,50
GE,72,ხელედი,42.646,42.789,50
GE,60,ქვედა ღვარდია,42.908,42.538,50
GE,60,მოიდანახე,42.143,42.548,50
GE,901,თელავი,45.471,41.919,363
GE,363,გურჯაანი,45.798,41.745,253
GE,123,წიფა,43.456,42.006,50
GE,253,დიდვაკე,42.042,41.719,72
GE,72,საბაჟო,41.797,42.222,50
GE,303,დუისი,45.296,42.151,72
GE,86,ბაბოთი,42.717,42.062,60
GE,72,აბელიანი,44.497,41.571,50
GE,303,გონა,43.545,42.799,176
GE,86,ქაშვეთი,43.587,41.952,50
GE,147,დირბი,43.879,42.108,60
GE,72,გიმარა,44.333,42.639,72
GE,176,ძაძვის მონასტერი,43.793,41.945,72
GE,123,წიფორი,44.419,41.815,72
GE,103,კავთისხევი,44.446,41.86,50
GE,147,ოკამი,44.468,41.979,60
GE,176,ჩრდილო ჩიფრანი,44.078,42.454,176
GE,72,ცხინვალი,43.971,42.227,60
GE,103,ლოშკინეთი,43.734,41.878,103
GE,211,ქარელი,43.892,42.021,123
GE,103,დოესი,44.243,41.936,50
GE,72,თრეხვი,43.907,41.939,60
GE,626,ყოლა,43.908,42.473,176
GE,60,ბაჯიგათა,44.105,42.473,60
GE,123,ცადიყაუ,43.754,42.46,103
GE,72,ქვემო ერმანი,44.237,42.513,72
GE,103,ელბაქითა,44.006,42.427,103
GE,103,უხათი,44.522,42.557,103
GE,123,ერეთო,44.445,42.485,123
GE,103,ჭილაანთკარი,44.889,41.886,72
GE,147,ძეგვი,44.602,41.846,60
GE,72,ლისი,44.675,41.758,60
GE,72,წითელი კლდე,44.874,42.097,50
GE,626,მნა,44.462,42.611,303
GE,72,კეთრისი,44.399,42.597,72
GE,86,კაწალხევი,44.861,42.361,50
GE,72,ბლო,44.92,42.57,50
GE,72,ციხისძირი,44.577,41.894,50
GE,60,მცხეთა,44.72,41.846,50
GE,72,გველეთი,44.624,42.708,50
GE,211,სტეფანწმინდა,44.644,42.661,50
GE,103,ართხმო,44.642,42.562,103
GE,60,ქოსელი,44.665,42.592,50
GE,435,ბანცური,44.699,42.324,176
GE,60,დავითურნი,44.623,42.345,60
GE,751,ბოგჩვილო,44.972,42.496,303
GE,72,სიონი,45.027,41.991,50
GE,72,შეკვეთილი,41.769,41.928,50
GE,60,ხვანი,43.532,42.201,50
GE,103,ჭალოვანი,43.493,42.172,50
GE,72,ზედა ვედი,42.195,42.904,50
GE,86,ნახიდი,44.411,42.226,86
GE,123,წირი,44.384,42.137,72
GE,147,ვაყა,43.712,42.04,60
GE,147,ყობი,43.707,42.14,86
GE,72,ყინწვისი,43.819,41.976,50
GE,103,ჯგალი,42.126,42.653,50
GE,60,ხვითი,44.471,42.02,50
GE,86,ოდიში,41.93,42.528,50
GE,60,ორსანტია,41.681,42.47,50
GE,86,ნუკრიანი,45.89,41.611,50
GE,303,სენაკი,42.06,42.269,176
GE,60,ქვიშხეთი,43.504,41.965,50
GE,103,ოჩხამური,41.836,41.855,50
GE,13862,თბილისი,44.801,41.693,6686
GE,103,ლია,42.003,42.657,50
GE,103,ტალავერი,44.645,41.386,72
GE,72,დიდი ჯიხაიში,42.429,42.228,60
GE,751,ხაშური,43.598,41.997,303
GE,72,ფცა,43.786,42.084,50
GE,303,ზღუბირი,44.161,42.547,103
GE,211,თულარი,45.551,41.578,176
GE,363,გორი,44.112,41.981,363
GE,211,ზენადრისი,44.26,41.873,86
GE,147,სართიჭალა,45.177,41.715,72
GE,86,ყარაჯალარი,44.962,41.619,50
GE,435,მარნეული,44.816,41.471,103
GE,86,ლამჯურიში,43.018,42.915,60
GE,60,ხუგათა,43.694,42.471,60
GE,60,ძველი ხიბულა,41.983,42.445,50
GE,86,ლაფანყური,45.589,42.062,50
GE,60,მუგუთი,43.933,42.424,60
GE,522,უდაბნო,45.378,41.505,86
GE,522,ზემო ლათა,41.532,43.031,303
GE,60,ჩობალაური,44.313,42.011,50
GE,123,ქვემო კორსევი,43.871,42.405,123
GE,123,მაღი,44.073,42.586,123
GE,60,ზემო შარახევი,44.935,42.273,60
GE,147,ზენამხარი,44.902,42.208,72
GE,103,კახათი,41.771,42.49,50
GE,123,ზედაეწერი,41.925,42.583,50
GE,176,განთიადი,41.886,42.232,72
GE,60,ფერმა,44.519,41.955,50
GE,60,სასირეთი,44.305,41.923,50
GE,522,კასპი,44.418,41.921,176
GE,123,ლეჩური,45.416,42.142,50
GE,72,ყარაჯალა,45.445,41.968,50
GE,103,ხვანჭკარა,43.023,42.562,72
GE,60,ნოღა,42.209,42.47,50
GE,72,შულავერი,44.837,41.37,50
GE,522,ცოკალთა,45.621,42.35,211
GE,211,ვახტანგისი,45.12,41.389,50
GE,72,წალასყური,44.819,41.63,50
GE,60,კენაში,42.731,42.579,50
GE,435,ქობულეთი,41.776,41.82,176
GE,123,მუგუძირხვა,40.525,43.148,123
GE,103,პატარა ფოთი,41.723,42.182,50
GE,103,ცხილონი,44.374,42.086,50
GE,72,რკონი,44.227,41.816,50
GE,103,დვანი,43.878,42.159,50
GE,72,ჭიაურა,45.041,42.166,50
GE,60,ხაიშო,45.064,42.189,50
GE,103,ალი,43.647,42.088,50
GE,72,გვერძინეთი,43.72,41.936,50
GE,86,რუისი,43.963,42.038,50
GE,72,გოდოგანი,42.78,42.259,50
GE,103,ზენი,41.475,42.698,103
GE,147,ჩერნიგოვკა,41.268,42.949,147
GE,60,ტეხი,41.273,42.98,60
GE,103,ხარისთვალი,43.045,42.414,60
GE,72,აჯაჟვი,41.481,42.798,72
GE,147,რიყეთი,42.442,41.642,72
GE,253,ზედა გორდი,42.527,42.455,50
GE,72,ახალშენი,42.491,42.307,50
GE,86,ახალი სამგორი,45.074,41.575,50
GE,176,გამარჯვება,44.998,41.649,72
GE,147,ვენახჭალა,42.882,41.877,60
GE,103,ქვემო ქედი,46.512,41.37,86
GE,60,გომი,42.097,41.897,50
GE,60,ალექსეევკა,41.079,42.993,60
GE,103,პატარა კლდეისი,44.276,41.594,103
GE,176,მარჯვენა გენწვიში,41.794,43.106,176
GE,103,აფენი,46.028,41.809,60
GE,86,ჭოლაში,42.83,43.047,60
GE,751,ლაგოდეხი,46.273,41.827,211
GE,253,ნაფარეული,45.506,42.046,72
GE,72,სათხა,43.643,41.292,50
GE,253,ბოლნისი,44.539,41.45,147
GE,103,დღნორისა,42.819,42.468,50
GE,2240,ონი,43.443,42.584,176
GE,303,სარფი,41.55,41.522,50
GE,86,ზემო ალვანი,45.3,42.043,50
GE,86,თაზაკენდი,44.915,41.436,60
GE,72,II ქესალო,45.038,41.385,50
GE,60,კაპანახჩი,45.028,41.419,50
GE,1081,ჩუბარი,42.45,43.072,363
GE,60,ბალღოჯიანი,45.945,41.827,50
GE,123,ახალსოფელი,45.977,41.905,103
GE,176,გლოლა,43.644,42.703,86
GE,86,საკობიანო,45.254,42.121,50
GE,103,სავანეთი,44.665,41.431,50
GE,123,ღორეშა,43.268,42.071,60
GE,60,სუხჩა,42.468,42.416,50
GE,86,გუგუნირხვა,40.513,43.193,86
GE,435,ცხუმალდი,42.468,42.84,211
GE,103,ჭართალა,45.114,42.111,50
GE,176,ლიხეთი,43.244,42.602,60
GE,103,ბაჯიხევი,43.494,42.507,50
GE,303,ყვარელი,45.814,41.948,147
GE,123,დიზი,42.346,43.04,50
GE,60,ვახანი,43.32,41.944,50
GE,86,დამია-გეურარხი,44.783,41.3,50
GE,60,რეხა,43.851,41.686,50
GE,147,ხაჩკოვი,43.967,41.703,72
GE,123,ზოტი,42.451,41.895,123
GE,86,სურმუში,42.876,42.592,50
GE,176,ძიხჩა,40.36,43.253,176
GE,60,ზემო მაჭარა,41.191,43.011,60
GE,123,ნარდევანი,43.895,41.578,50
GE,60,ინგეთი,45.194,41.992,50
GE,123,ბუხრები,45.136,42.167,86
GE,103,ვარძია,43.091,42.023,60
GE,60,როდინოული,42.873,42.152,50
GE,211,ხობი,41.904,42.318,103
GE,60,გურჩხი,41.379,42.925,60
GE,176,ბოტკო,45.108,41.901,103
GE,147,ხრიალეთი,41.828,42.003,50
GE,86,ამამლო,44.232,41.279,50
GE,86,ლემშვანიერა,45.184,41.472,50
GE,103,გარდაბანი,45.091,41.46,72
GE,60,ჯორჯიაშვილი,44.621,41.58,50
GE,60,პირველი ჭოღა,42.195,42.565,50
GE,86,მელაანი,45.785,41.649,50
GE,86,ფხოველი,45.768,41.701,50
GE,72,ათარბა-იხუსთა,41.245,42.88,72
GE,60,ქვედა ონჭეიში,42.762,42.456,50
GE,147,ხიხაძირი,42.473,41.548,60
GE,86,პირველი მაისი,42.283,42.139,50
GE,435,აძიბჟარა,40.968,43.202,435
GE,103,ადიში,42.914,42.997,50
GE,86,მთის ძირი,44.906,41.589,50
GE,123,ჯიმითი,45.693,41.678,60
GE,123,ურავი,43.289,42.646,72
GE,123,ჭერემი,45.588,41.755,50
GE,147,ბანძა,42.281,42.351,72
GE,86,გავაზი,45.869,41.853,60
GE,123,შილდა,45.723,42.003,72
GE,60,შაქრიანი,45.582,42.017,50
GE,86,წედისი,43.547,42.533,72
GE,60,მიწაწითელი,42.548,42.234,50
GE,72,ხარისთვალი,43.422,42.487,60
GE,60,ჯანდარა,45.168,41.447,50
GE,253,რუსთავი,45.011,41.544,176
GE,103,ეშტია,43.613,41.342,60
GE,103,დილითი,43.473,41.277,50
GE,123,ბასო,45.5,42.487,123
GE,123,ბიქურთა,45.464,42.35,123
GE,103,დიკლო,45.689,42.396,103
GE,86,ეწერი,41.71,42.531,50
GE,60,სამქვარი,41.742,42.653,60
GE,72,პანტიანი,44.141,41.306,50
GE,303,ცაგერი,42.768,42.646,176
GE,176,კაკაბეთი,45.543,41.699,86
GE,176,ფართოღალი,41.819,42.693,86
GE,72,გახომელა,42.19,42.344,50
GE,60,ფოცხო,42.167,42.427,50
GE,103,მაზერი,42.61,43.074,50
GE,123,ჩხოროწყუ,42.129,42.521,60
GE,211,ლესიჭინე,42.098,42.443,72
GE,72,ძველი,43.149,41.581,50
GE,72,ხიზაბავრა,43.29,41.522,50
GE,86,გელსუნდა,43.291,41.461,50
GE,103,გორნაწყი,41.796,42.86,103
GE,60,ილორგანი,41.541,42.707,60
GE,60,ჯგერიანი,41.638,42.76,60
GE,147,მარტყოფი,45.025,41.788,123
GE,86,სააკაძე,45.05,41.735,50
GE,123,ვაზიანი,45.05,41.692,50
GE,147,ვანი,42.509,42.088,86
GE,72,ტიბაანი,46.003,41.574,50
GE,72,რუხი,41.858,42.55,50
GE,86,ნახიდური,44.699,41.47,60
GE,147,აბაშა,42.203,42.205,86
GE,103,წინწყარო,44.619,41.543,72
GE,123,გომბორი,45.203,41.859,60
GE,60,დიხაგუძბა,41.566,42.48,50
GE,60,ქუტირი,42.374,42.277,50
GE,60,რეფო-ეწერი,41.665,42.634,60
GE,72,ნაჯიხური,41.9,42.658,50
GE,123,ხირსა,46.102,41.529,50
GE,211,ახკერპი,44.576,41.219,103
GE,103,სათაფლე,45.28,41.647,72
GE,60,კამარლო,44.139,41.351,50
GE,211,მეორე გუდავა,41.522,42.585,103
GE,103,წაბლანა,42.345,41.583,50
GE,103,ბაში,42.495,42.143,50
GE,60,თხინაშკარი,41.613,42.593,60
GE,103,ნასაკირალი,42.023,41.968,50
GE,211,გვერდისუბანი,43.643,41.785,147
GE,103,ოფრეთი,44.631,41.249,50
GE,123,წერაქვი,44.656,41.296,60
GE,103,შაუმიანი,44.762,41.352,72
GE,86,ყუდრო,44.653,41.34,50
GE,60,ბარეთი,44.154,41.67,50
GE,86,დიდი ნამტვრიანი,44.325,41.739,50
GE,60,ქვაბღა,42.403,41.924,50
GE,303,ასფარა,43.78,41.452,86
GE,60,როდიონოვკა,43.848,41.454,50
GE,86,ზემო კარაბულახი,44.096,41.416,86
GE,86,დოლოგანი,41.786,41.548,50
GE,72,ბორითი,43.268,42.109,50
GE,253,შტვილი,42.828,42.847,253
GE,72,ბოლნისი,44.506,41.382,50
GE,72,აკაურთა,44.446,41.463,50
GE,60,ჭიორა,43.553,42.745,50
GE,211,კაზრეთი,44.417,41.383,86
GE,253,ყარი,42.183,43.05,123
GE,86,ტიტა,42.188,43.091,50
GE,103,კორტანეთი,43.443,41.894,50
GE,72,ყვიბისი,43.421,41.861,50
GE,253,აქიდრა,41.493,42.902,253
GE,253,ჭიაური,46.15,41.701,60
GE,60,ახალშენი,41.698,41.618,50
GE,60,ნობულევი,42.315,42.559,50
GE,72,ჭოგნარი,42.772,42.222,50
GE,86,ჯალ-აფსუა,41.554,42.841,86
GE,72,ფადგუ,41.607,42.858,72
GE,123,მეორე არასაძიხი,41.602,42.927,123
GE,103,წინანდალი,45.574,41.895,60
GE,147,ბარჯაში,42.032,42.871,60
GE,60,მოძვი,43.419,42.263,50
GE,147,კუტიძრა,40.744,43.178,147
GE,86,ზედა ზეგანი,42.922,42.037,50
GE,1081,ქუთაისი,42.701,42.27,751
GE,103,როხი,42.712,42.107,50
GE,72,აბული,43.609,41.401,50
GE,522,კარწახი,43.277,41.246,103
GE,86,ოშორა,43.244,41.618,50
GE,303,აწყური,43.16,41.729,103
GE,60,ტობახჩა,42.485,41.946,50
GE,103,ოქონა,42.968,42.248,50
GE,60,წინსვლა,41.705,41.649,50
GE,253,აიბღა,40.258,43.583,253
GE,86,დარჩელი,41.687,42.435,60
GE,72,ქვიტირი,42.648,42.244,50
GE,86,რიონი,42.713,42.337,50
GE,60,შენაქო,45.662,42.372,50
GE,103,მამანეთი,42.748,41.913,72
GE,86,პავლოვსკოე,41.119,43.066,86
GE,211,ნინოწმინდა,43.59,41.269,103
GE,303,წალენჯიხა,42.068,42.61,123
GE,86,მუსხი,43.073,41.576,60
GE,60,გოგიეთი,42.048,41.878,50
GE,86,აგარა,42.387,41.696,50
GE,60,სკურდიდი,41.811,41.483,50
GE,123,დიდი ჭყონი,42.316,42.501,60
GE,60,გვიმარონი,41.971,42.272,50
GE,253,მესტია,42.723,43.043,123
GE,253,ბაბუშარა,41.137,42.865,253
GE,60,დავნია,43.259,41.282,50
GE,435,ახალქალაქი,43.485,41.408,303
GE,147,აზავრეთი,43.455,41.585,103
GE,60,განთიადი,40.085,43.38,60
GE,103,ალასტანი,43.401,41.546,50
GE,211,სერებრიანოე,40.82,43.365,211
GE,103,აღურიფსტა,40.809,43.422,103
GE,103,მაჯადია,43.516,41.448,50
GE,72,ნარუჯა,41.955,41.907,50
GE,72,ორჯა,43.47,41.477,50
GE,72,იხტილა,43.541,41.554,60
GE,60,დიდი სამსარი,43.598,41.539,50
GE,86,ტვიში,42.802,42.517,50
GE,147,ხარაგაული,43.204,42.014,103
GE,60,ჩამდურა,43.463,41.381,50
GE,72,ვაჩიანი,43.43,41.355,50
GE,103,კუმურდო,43.354,41.397,72
GE,211,აფნია,43.28,41.364,50
GE,60,განახლება,44.112,41.487,50
GE,60,ხეცქვარა,41.731,43.133,60
GE,60,ბრამბა,41.714,43.099,60
GE,72,ქვილიშორი,42.618,42.361,60
GE,60,ვაიო,41.98,41.619,50
GE,363,ჭიათურა,43.279,42.287,211
GE,147,ქვაფჩარა,41.617,43.074,147
GE,60,ჭაგან-ჭყვიში,42.42,42.116,50
GE,86,ჭობისხევი,43.301,41.776,50
GE,103,ტაბაწყური,43.62,41.664,60
GE,60,მოლითი,43.587,41.645,50
GE,103,საკირე,43.284,41.737,60
GE,123,ციხისჯვარი,43.441,41.717,50
GE,303,ქედა,41.939,41.599,147
GE,147,გომარეთი,44.164,41.498,72
GE,86,გუგუთი,44.32,41.217,50
GE,147,კამიშლო,44.346,41.25,60
GE,176,ჩოხატაური,42.241,42.019,86
GE,60,წაღვერი,43.484,41.798,50
GE,60,ხორბალო,45.235,42.068,50
GE,72,ახალსოფელი,44.339,41.651,50
GE,103,მენდელეევო,40.189,43.409,103
GE,86,ზედა მახუნცეთი,41.857,41.58,50
GE,86,ხაიში,42.184,42.944,50
GE,86,ორბეთი,44.524,41.667,72
GE,60,ბგარდვანი,40.597,43.2,60
GE,86,ქვიანი,42.166,42.089,60
GE,176,არხვა,40.581,43.234,176
GE,103,ნამოხვანი,42.7,42.418,60
GE,147,ნაღვარევი,42.269,41.758,50
GE,72,განთიადი,41.932,41.981,50
GE,60,ბახვი,42.112,41.947,50
GE,435,საგარეჯო,45.324,41.736,176
GE,303,ახმეტა,45.211,42.034,176
GE,123,თეთრიწყარო,44.462,41.544,72
GE,72,ქოსალარი,44.612,41.499,50
GE,72,კორმაღალი,42.41,42.085,50
GE,147,მახო,41.671,41.562,60
GE,253,ტყიბული,42.997,42.348,147
GE,211,ტბათანა,45.26,42.271,86
GE,103,ბადიაური,45.551,41.645,50
GE,86,ფანაგა,42.927,42.832,60
GE,901,სადახლო,44.79,41.243,176
GE,60,კირნათი,41.717,41.496,50
GE,86,ახუწა,41.395,42.953,86
GE,72,განთიადი,43.962,41.595,50
GE,147,კიზილქილისა,43.876,41.644,123
GE,103,ქოჩარა,41.446,42.861,103
GE,86,ქაქუთი,41.957,41.859,50
GE,60,ჯაბნიძეები,42.179,41.6,50
GE,72,ნამანევი,43.008,42.498,50
GE,147,ნამონასტრევი,42.056,41.57,60
GE,363,ლანჩხუთი,42.036,42.087,123
GE,86,წიფლოვანი,41.301,43.014,86
GE,86,ველისციხე,45.757,41.81,50
GE,123,ხუნევი,43.36,42.11,50
GE,211,ჯვარი,42.053,42.719,72
GE,72,კარდენახი,45.892,41.672,60
GE,751,დედოფლისწყარო,46.11,41.464,253
GE,60,არბოშიკი,45.963,41.551,50
GE,86,გამარჯვება,45.984,41.49,50
GE,435,ფოთი,41.675,42.142,303
GE,751,ზუგდიდი,41.872,42.506,522
GE,211,ძულუხი,42.614,42.027,50
GE,60,ხაბიუ,40.777,43.197,60
GE,303,რიწა,40.535,43.471,303
GE,123,ფარცხანაყანები,42.55,42.195,103
GE,103,თუზი,43.099,42.269,50
GE,60,ცილორი,42.221,42.164,50
GE,303,ამბროლაური,43.153,42.52,103
GE,86,დარბაზი,44.327,41.414,60
GE,176,პერევი,43.601,42.365,72
GE,176,ლენტეხი,42.727,42.789,72
GE,60,იფნარი,40.324,43.231,60
GE,72,რუსთავი,43.134,41.624,50
GE,147,ბაკურიანი,43.527,41.75,60
GE,103,ანდა,43.001,41.581,50
GE,60,სხვავა,43.245,42.507,50
GE,60,ლეღვანი,43.252,41.964,50
GE,72,ხორენია,43.524,41.342,50
GE,60,თრიალეთი,44.108,41.541,50
GE,147,ქვემო ჩოფჩაური,45.132,41.982,60
GE,60,ბამბორა,40.599,43.101,60
GE,103,ახალშენი,44.076,41.666,50
GE,253,მახაში,43.093,42.806,253
GE,103,ფოკა,43.796,41.395,50
GE,60,საღამო,43.76,41.316,50
GE,176,განძა,43.75,41.348,103
GE,147,მარტვილი,42.379,42.415,60
GE,123,ვარხანი,42.84,41.69,50
GE,72,გრიგოლეთი,41.737,42.041,50
GE,123,შუახევი,42.191,41.626,60
GE,123,ბეჟანო,43.56,41.61,50
GE,60,ალათუმანი,43.527,41.588,50
GE,103,ციხისძირი,41.765,41.766,50
GE,60,ღოუბანი,44.711,41.613,50
GE,2688,დემერჩენცი,40.091,43.511,1081
GE,211,აგრაი,42.916,42.94,211
GE,60,დადიკურთა,45.504,42.434,60
GE,60,ქვემო თელეთი,44.86,41.646,50
GE,123,დართლო,45.583,42.439,123
GE,86,ტაბანათი,41.818,42.048,50
GE,86,ხაიში,44.713,41.51,50
GE,60,აფიანდა,41.056,43.095,60
GE,123,ხანდო,43.403,41.492,72
GE,72,უჩხო,42.314,41.68,50
GE,103,თერჯოლა,42.977,42.182,60
GE,147,ზემო ქედი,46.382,41.426,147
GE,522,დმანისი,44.203,41.332,103
GE,60,მამიშლო,44.264,41.301,50
GE,123,ჯოის უბანი,43.355,42.55,50
GE,60,განმუხური,41.628,42.425,50
GE,147,დილიკაური,43.113,42.152,50
GE,60,ზედა საქარა,43.066,42.129,50
GE,363,ზესტაფონი,43.038,42.107,253
GE,60,ქვედა ილემი,43.122,42.076,50
GE,72,ვარციხე,42.718,42.144,50
GE,72,მოხე,42.598,41.713,50
GE,253,ხულო,42.315,41.644,176
GE,103,საბათლო,46.669,41.323,103
GE,103,უჯარმა,45.164,41.792,50
GE,60,თისელი,43.222,41.716,50
GE,60,წყრუთი,42.943,41.679,50
GE,103,კლდე,43.027,41.678,50
GE,60,მირაშხანი,43.258,41.34,50
GE,86,გომარო,42.742,41.705,50
GE,103,სულდა,43.373,41.279,50
UA,363,Біловодськ,39.579,49.201,303
UA,60,Випасне,30.259,46.19,50
UA,253,Решетилівка,34.074,49.563,211
UA,123,Верхівцеве,34.248,48.481,123
UA,176,Слов'яносербськ,38.98,48.693,86
UA,211,Губиниха,35.254,48.809,147
UA,522,Ічкі,34.932,45.344,303
UA,3870,Дніпро,35.018,48.468,1297
UA,1867,Кривий Ріг,33.395,47.92,751
UA,626,Сарни,26.608,51.333,363
UA,253,Рудки,23.487,49.654,103
UA,123,Шевченко,37.145,48.221,50
UA,72,Георгіївка,39.255,48.428,50
UA,901,Севастополь,33.54,44.592,363
UA,363,Зарічне,26.125,51.82,253
UA,435,Бориспіль,30.956,50.359,103
UA,211,Ялта,37.273,46.958,86
UA,363,Зеленодольськ,33.654,47.557,86
UA,86,Вознесенка,35.46,46.87,50
UA,211,Козача Лопань,36.184,50.335,86
UA,211,Великі Копані,32.974,46.49,123
UA,176,Гнівань,28.347,49.091,123
UA,751,Олевськ,27.649,51.226,435
UA,253,Щастя,39.23,48.737,103
UA,303,Городниця,27.317,50.809,176
UA,123,Докучаєвське,36.451,49.893,86
UA,72,Андріївка,36.622,49.535,50
UA,5572,Одеса,30.718,46.473,2240
UA,211,Вишгород,30.49,50.586,103
UA,72,Родакове,39.026,48.558,50
UA,147,Козова,25.159,49.431,123
UA,86,Печеніжин,24.889,48.514,72
UA,86,Партеніт,34.342,44.575,50
UA,363,Волочиськ,26.209,49.536,303
UA,60,Любимівка,33.572,46.807,50
UA,1081,Кременчук,33.434,49.078,626
UA,1297,Первомайськ,30.844,48.039,522
UA,86,Рубіжне,38.388,49.009,60
UA,253,Знам'янка,32.674,48.715,211
UA,522,Сєвєродонецьк,38.479,48.948,303
UA,253,Лозуватка,33.292,48.064,103
UA,211,Дебальцеве,38.418,48.341,123
UA,626,Баштанка,32.44,47.405,253
UA,435,Чутове,35.167,49.715,176
UA,522,Миргород,33.61,49.965,303
UA,901,Івано-Франківськ,24.712,48.916,626
UA,253,Армянськ,33.692,46.109,103
UA,211,Зоринськ,38.619,48.415,50
UA,363,Борщів,26.04,48.802,176
UA,211,Новгородка,32.653,48.355,176
UA,303,Лутугине,39.21,48.403,147
UA,103,Безлюдівка,36.273,49.871,72
UA,176,Овідіополь,30.435,46.253,72
UA,147,Мішково-Погорілове,32.105,46.995,50
UA,435,Дніпрорудне,34.991,47.382,211
UA,147,Дубляни,24.086,49.901,60
UA,901,Шепетівка,27.064,50.183,363
UA,147,Турбів,28.727,49.342,123
UA,103,Лиманське,29.97,46.666,50
UA,147,Дружківка,37.529,48.617,86
UA,123,Ківшарівка,37.679,49.63,60
UA,303,Дубове,23.893,48.193,176
UA,72,Вознесенівка,39.787,48.074,60
UA,211,Петропавлівка,36.436,48.455,86
UA,303,Роздільна,30.077,46.848,253
UA,72,Буштино,23.479,48.053,60
UA,253,Радехів,24.643,50.279,176
UA,176,Золоте,38.516,48.693,50
UA,72,Калинівка,30.232,50.226,50
UA,211,Новгород-Сіверський,33.263,52.009,147
UA,211,Богородчани,24.538,48.807,103
UA,211,Шумськ,26.116,50.118,176
UA,103,Пантелеймонівка,37.973,48.203,86
UA,86,Кипуче,38.719,48.439,50
UA,363,Більмак,36.648,47.358,211
UA,522,Євпаторія,33.365,45.203,435
UA,147,Яворів,23.388,49.94,103
UA,60,Старий Крим,37.478,47.164,60
UA,303,Березна,31.784,51.57,176
UA,303,Мала Виска,31.633,48.644,123
UA,211,Пісківка,29.611,50.702,176
UA,72,Колінківці,26.127,48.41,72
UA,435,Южне,31.101,46.624,176
UA,211,Володарка,29.914,49.526,147
UA,363,Корець,27.159,50.619,253
UA,363,Чорноморськ,30.654,46.303,147
UA,253,Бахмут,37.999,48.597,123
UA,176,Нікольське,37.321,47.203,147
UA,303,Єди-Кую,35.773,45.296,103
UA,363,Васильків,30.325,50.185,176
UA,363,Кілія,29.255,45.466,211
UA,363,Тростянець,34.971,50.473,147
UA,435,Ємільчине,27.808,50.872,253
UA,1867,Луганськ,39.329,48.567,751
UA,123,Судова Вишня,23.364,49.791,103
UA,303,Сіверськ,38.093,48.875,147
UA,86,Коцюбинське,30.333,50.49,50
UA,211,Бровари,30.802,50.511,103
UA,303,Рокитне,27.215,51.272,211
UA,60,Чорнобаївка,32.547,46.698,50
UA,176,Новомиколаївка,35.909,47.977,176
UA,147,Петропавлівка,39.267,48.805,60
UA,72,Любимівка,39.434,48.04,50
UA,253,Захарівка,29.758,47.332,176
UA,211,Сокаль,24.284,50.485,86
UA,363,Ратне,24.527,51.666,211
UA,363,Якимівка,35.163,46.697,147
UA,303,Южноукраїнськ,31.176,47.823,176
UA,303,Козятин,28.833,49.716,147
UA,211,Шевченкове,29.333,45.555,86
UA,522,Броди,25.153,50.078,303
UA,103,Квасилів,26.267,50.557,50
UA,60,Гостомель,30.238,50.58,50
UA,303,Новоазовськ,38.081,47.116,253
UA,211,Костянтинівка,37.702,48.523,123
UA,211,Енергодар,34.655,47.498,176
UA,363,Нижні Сірогози,34.377,46.841,253
UA,72,Сутиски,28.416,49.042,50
UA,253,Кушугум,35.216,47.712,103
UA,253,Краснокутськ,35.147,50.06,147
UA,147,Молочанськ,35.597,47.203,60
UA,103,Старобешеве,38.03,47.751,50
UA,123,Власівка,33.279,49.118,60
UA,626,Нововолинськ,24.17,50.733,253
UA,253,Роздольне,33.489,45.77,211
UA,435,Кодима,29.127,48.096,211
UA,363,Камінь-Каширський,24.963,51.623,363
UA,303,Дружба,33.94,52.048,86
UA,72,Білицьке,37.184,48.407,72
UA,253,Куликівка,31.643,51.373,211
UA,435,Красноград,35.453,49.373,363
UA,303,Шишаки,34.005,49.877,123
UA,103,Степанівка,34.633,50.943,86
UA,211,Соледар,38.072,48.691,86
UA,60,Перевальськ,38.818,48.436,50
UA,253,Вапнярка,28.743,48.535,103
UA,253,Перегінське,24.188,48.812,123
UA,60,Привілля,38.298,49.005,50
UA,176,Межова,36.724,48.254,176
UA,253,Попільня,29.46,49.944,147
UA,901,Вараш,25.85,51.345,522
UA,72,Донець,36.57,49.508,60
UA,147,Верхньодніпровськ,34.336,48.648,147
UA,123,Великі Мости,24.144,50.241,50
UA,211,Помічна,31.407,48.243,72
UA,303,Тульчин,28.851,48.672,211
UA,103,Ясенівський,39.216,48.159,50
UA,123,Гвардійське,35.32,48.736,50
UA,253,Сокиряни,27.416,48.449,103
UA,363,Бобринець,32.163,48.054,253
UA,253,Галич,24.73,49.125,103
UA,60,Берислав,33.426,46.842,50
UA,103,Красне,24.622,49.916,50
UA,253,Маньківка,30.333,48.964,176
UA,86,Володимирівка,37.386,47.732,86
UA,363,Борова,37.638,49.38,211
UA,72,Восход,34.388,45.509,50
UA,86,Карнаухівка,34.736,48.47,72
UA,123,Вуглегірськ,38.273,48.313,60
UA,211,П'ятихатки,33.702,48.412,86
UA,123,Біле,39.039,48.496,72
UA,363,Арциз,29.427,45.985,363
UA,253,Городок,23.664,49.785,103
UA,303,Бурштин,24.627,49.259,176
UA,363,Першотравенськ,36.402,48.349,211
UA,435,Болград,28.613,45.684,211
UA,363,Теплик,29.749,48.661,147
UA,363,Хотин,26.49,48.509,147
UA,435,Веселе,34.908,47.016,211
UA,211,Кача,33.545,44.777,72
UA,363,Нова Одеса,31.785,47.297,253
UA,176,Нова Збур'ївка,32.451,46.453,72
UA,253,Марганець,34.616,47.648,103
UA,211,Татарбунари,29.611,45.843,123
UA,522,Канів,31.449,49.745,253
UA,1556,Миколаїв,32.008,46.945,626
UA,253,Шевченкове,37.174,49.694,211
UA,1081,Скадовськ,32.912,46.118,363
UA,123,Городнє,28.849,45.89,72
UA,253,Зоря,29.697,45.99,123
UA,211,Плахтіївка,29.719,46.098,86
UA,211,Свеса,33.932,51.947,176
UA,253,Станиця Луганська,39.474,48.665,103
UA,86,Новофедорівка,33.575,45.093,50
UA,211,Обухів,30.633,50.114,176
UA,435,Бережани,24.94,49.445,303
UA,522,Кременець,25.734,50.097,253
UA,147,Яремче,24.568,48.461,60
UA,435,Малин,29.265,50.769,363
UA,363,Покровськ,37.175,48.282,303
UA,211,Ірпінь,30.244,50.52,176
UA,147,Таранівка,36.148,49.623,86
UA,72,Розкішне,39.273,48.491,60
UA,626,Гадяч,33.989,50.37,253
UA,253,Новодонецьке,36.982,48.635,72
UA,176,Гусятин,26.188,49.072,147
UA,211,Довге,23.281,48.365,72
UA,60,Олексієво-Дружківка,37.613,48.58,50
UA,123,Світлодарськ,38.221,48.433,103
UA,103,Городківка,28.68,48.378,103
UA,211,Новояворівськ,23.572,49.932,211
UA,147,Христинівка,29.973,48.812,147
UA,176,Сартана,37.691,47.177,60
UA,147,Михайлівка,35.224,47.272,147
UA,435,Богуслав,30.874,49.544,211
UA,60,Нові Петрівці,30.444,50.624,50
UA,626,Павлоград,35.885,48.528,435
UA,1297,Умань,30.219,48.749,751
UA,147,Болехів,23.854,49.068,86
UA,72,Ватутіне,31.063,49.014,60
UA,522,Краматорськ,37.568,48.722,363
UA,253,Слов'янськ,37.612,48.85,103
UA,253,Стрий,23.841,49.261,176
UA,1081,Ізюм,37.281,49.205,253
UA,435,Алчевськ,38.793,48.476,253
UA,626,Старокостянтинів,27.211,49.753,303
UA,901,Ужгород,22.298,48.619,522
UA,1081,Біла Церква,30.117,49.802,522
UA,435,Білогір'я,26.414,50.002,123
UA,2240,Вінниця,28.474,49.232,1297
UA,1556,Лубни,32.987,50.016,435
UA,1081,Охтирка,34.9,50.31,435
UA,1556,Тернопіль,25.601,49.555,751
UA,176,Славута,26.868,50.3,123
UA,3870,Сімферополь,34.104,44.955,1556
UA,211,Ровеньки,39.348,48.072,147
UA,72,Сніжне,38.75,48.035,60
UA,60,Молодогвардійськ,39.651,48.349,60
UA,363,Чугуїв,36.683,49.835,253
UA,86,Антрацит,39.092,48.126,86
UA,86,Ясинувата,37.863,48.127,72
UA,103,Брянка,38.665,48.499,50
UA,86,Авдіївка,37.747,48.142,60
UA,901,Хуст,23.296,48.177,363
UA,751,Ніжин,31.879,51.044,435
UA,626,Олександрія,33.098,48.664,363
UA,211,Сновськ,31.947,51.818,147
UA,1297,Конотоп,33.202,51.237,901
UA,626,Любашівка,30.259,47.836,253
UA,363,Лебедин,34.481,50.582,253
UA,303,Хмільник,27.953,49.558,303
UA,901,Ромни,33.485,50.742,363
UA,901,Горлівка,38.067,48.328,253
UA,1297,Коростень,28.629,50.96,522
UA,363,Глухів,33.911,51.68,253
UA,1297,Шостка,33.488,51.865,522
UA,363,Калуш,24.365,49.039,211
UA,435,Бар,27.68,49.077,211
UA,86,Міусинськ,38.895,48.079,50
UA,363,Димер,30.306,50.785,103
UA,72,Білогородка,30.232,50.391,50
UA,147,Нове,32.126,48.534,72
UA,211,Вороніж,33.468,51.769,72
UA,751,Вовчанськ,36.942,50.288,363
UA,123,Добротвір,24.384,50.205,86
UA,211,Врадіївка,30.594,47.86,176
UA,86,Кріпенський,39.049,48.079,50
UA,147,Стрижавка,28.478,49.311,60
UA,253,Томаківка,34.747,47.816,147
UA,60,Зеленівка,32.646,46.716,50
UA,435,Білогірськ,34.601,45.056,253
UA,303,Миронівка,30.989,49.661,103
UA,363,Заліщики,25.736,48.651,147
UA,86,Старі Кути,25.166,48.273,50
UA,1081,Запоріжжя,35.154,47.85,435
UA,123,Фащівка,38.61,48.275,60
UA,522,Теребовля,25.702,49.299,176
UA,176,Петрове,33.274,48.334,123
UA,147,Гаспра,34.113,44.431,60
UA,86,Новоолексіївка,34.637,46.227,86
UA,363,Монастирище,29.808,48.991,123
UA,211,Голованівськ,30.457,48.383,103
UA,253,Марківка,39.56,49.523,211
UA,211,Ямпіль,28.28,48.244,72
UA,176,Ярмолинці,26.838,49.193,123
UA,751,Хмельницький,26.991,49.417,751
UA,363,Славутич,30.727,51.523,253
UA,2240,Донецьк,37.778,47.98,1297
UA,5572,Харків,36.269,49.982,2688
UA,60,Трускавець,23.506,49.277,50
UA,522,Богодухів,35.527,50.164,253
UA,211,Катеринопіль,30.965,48.946,72
UA,901,Звенигородка,30.962,49.069,363
UA,435,Сколе,23.51,49.035,176
UA,103,Іванівка,38.949,48.232,50
UA,1081,Сергіївка,30.369,46.026,86
UA,103,Гірське,38.5,48.747,50
UA,363,Горохів,24.762,50.5,176
UA,363,Хорол,33.263,49.783,211
UA,147,Гурзуф,34.286,44.549,60
UA,147,Слатине,36.157,50.212,86
UA,147,Кіцмань,25.765,48.442,72
UA,253,Володимирець,26.145,51.421,123
UA,147,Вишневе,30.359,50.387,60
UA,86,Лозівський,38.888,48.554,50
UA,363,Валки,35.617,49.839,147
UA,253,Градизьк,33.132,49.233,103
UA,363,Бучач,25.379,49.065,211
UA,176,Новий Світ,38.021,47.806,60
UA,123,Глибока,25.928,48.089,123
UA,123,Кам'янка,25.904,48.027,50
UA,253,Мангуш,37.307,47.058,123
UA,303,Новотроїцьке,34.333,46.355,303
UA,626,Нікополь,34.372,47.58,363
UA,1081,Львів,24.014,49.835,1081
UA,176,Слобожанське,36.527,49.592,123
UA,303,Судак,34.975,44.854,211
UA,435,Могилів-Подільський,27.808,48.445,303
UA,60,Голубівка,38.637,48.637,50
UA,303,Воловець,23.177,48.713,147
UA,147,Савинці,37.055,49.405,123
UA,435,Алушта,34.403,44.668,176
UA,103,Теплодар,30.326,46.505,60
UA,901,Токмак,35.706,47.249,363
UA,435,Вільшанка,30.881,48.235,123
UA,303,Кам'янка-Бузька,24.348,50.103,147
UA,123,Рівне,31.751,48.244,123
UA,751,Коломия,25.039,48.535,253
UA,103,Часів Яр,37.836,48.583,72
UA,1556,Ковель,24.703,51.217,363
UA,751,Пологи,36.266,47.476,303
UA,253,Циркуни,36.372,50.088,86
UA,253,Попасна,38.374,48.633,86
UA,363,Надвірна,24.577,48.629,253
UA,123,Гірник,37.371,48.055,60
UA,86,Первомайськ,38.555,48.628,60
UA,123,Новгородське,37.849,48.324,50
UA,211,Рені,28.279,45.46,123
UA,751,Гайворон,29.849,48.347,363
UA,303,Кельменці,26.833,48.458,176
UA,176,Дергачі,36.106,50.112,123
UA,303,Гола Пристань,32.524,46.524,103
UA,211,Копичинці,25.912,49.108,86
UA,211,Просяна,36.372,48.118,123
UA,435,Жовті Води,33.508,48.357,303
UA,901,Генічеськ,34.803,46.177,435
UA,123,Сокирниця,23.403,48.123,50
UA,253,Рогатин,24.614,49.411,123
UA,751,Іванків,29.894,50.937,211
UA,123,Нерубайське,30.632,46.547,60
UA,522,Сміла,31.882,49.216,176
UA,253,Деражня,27.438,49.27,123
UA,147,Чуднів,28.112,50.05,103
UA,60,Малинівка,36.71,49.797,50
UA,211,Драбів,32.136,49.958,176
UA,211,Березань,31.478,50.313,176
UA,72,Інкерман,33.612,44.614,50
UA,211,Приморський,35.484,45.119,72
UA,253,Гвардійське,34.011,45.116,103
UA,211,Ківерці,25.459,50.833,86
UA,1081,Суми,34.807,50.908,901
UA,901,Волноваха,37.489,47.597,363
UA,435,Снігурівка,32.801,47.073,363
UA,123,Велика Березовиця,25.609,49.497,50
UA,901,Мілове,40.137,49.374,253
UA,72,Гресівський,34.026,45.009,60
UA,363,Балаклія,36.846,49.46,253
UA,522,Чортків,25.799,49.011,435
UA,147,Глибокий Потік,23.9,48.067,60
UA,211,Ізяслав,26.821,50.119,103
UA,901,Бердянськ,36.789,46.765,435
UA,72,Великий Дальник,30.559,46.476,72
UA,176,Братське,31.573,47.869,147
UA,60,Українськ,37.363,48.097,50
UA,303,Доброслав,30.943,46.82,123
UA,86,Панютине,36.277,48.939,50
UA,435,Сватове,38.158,49.412,253
UA,1081,Нова Каховка,33.357,46.749,363
UA,303,Вільнянськ,35.429,47.942,123
UA,211,Апостолове,33.717,47.659,176
UA,72,Дніпровське,34.435,48.592,60
UA,751,Покровське,36.235,47.985,176
UA,363,Софіївка,33.893,48.073,211
UA,303,Царичанка,34.471,48.943,176
UA,435,Тальне,30.703,48.889,147
UA,522,Іллінці,29.207,49.108,147
UA,435,Жовква,23.978,50.056,176
UA,363,Недригайлів,33.876,50.833,176
UA,303,Новоайдар,39.005,48.966,176
UA,123,Троїцьке,30.018,46.542,72
UA,626,Ширяєве,30.192,47.384,253
UA,303,Мена,32.214,51.525,211
UA,303,Приморськ,36.357,46.728,211
UA,626,Кролевець,33.382,51.552,211
UA,363,Короп,32.954,51.565,211
UA,211,Шпола,31.389,48.999,176
UA,363,Носівка,31.581,50.934,123
UA,147,Великий Кучурів,25.901,48.21,72
UA,103,Остер,30.882,50.948,60
UA,123,Чемерівці,26.348,49.013,86
UA,363,Немирів,28.844,48.977,253
UA,103,Пелагіївка,38.608,48.097,50
UA,147,Томашпіль,28.518,48.55,123
UA,363,Мукачево,22.719,48.442,253
UA,72,Сваричів,24.186,48.96,50
UA,303,Зміїв,36.35,49.685,176
UA,626,Амвросіївка,38.485,47.797,211
UA,626,Корюківка,32.264,51.777,435
UA,147,Щирець,23.857,49.65,60
UA,86,Борівське,38.565,48.868,72
UA,303,Красилів,26.969,49.65,103
UA,211,Білокуракине,38.722,49.534,176
UA,211,Козелець,31.116,50.914,176
UA,176,Білгород-Дністровський,30.33,46.187,147
UA,123,Миропіль,27.703,50.107,86
UA,363,Біюк-Онлар,34.126,45.292,147
UA,103,Монастириська,25.168,49.089,103
UA,211,Здолбунів,26.254,50.512,86
UA,435,Курман,34.294,45.495,176
UA,303,Летичів,27.619,49.389,176
UA,435,Каланчак,33.292,46.254,176
UA,522,Перещепине,35.361,49.015,303
UA,176,Велика Новосілка,36.838,47.841,176
UA,751,Бердичів,28.596,49.896,303
UA,522,Велика Михайлівка,29.853,47.076,176
UA,147,Понінка,27.551,50.189,60
UA,176,Красноїльськ,25.571,48.012,72
UA,435,Чернігівка,36.206,47.192,211
UA,253,Іршава,23.036,48.317,147
UA,253,Кам'янка,32.101,49.034,147
UA,60,Миколаївка,36.307,48.382,60
UA,176,Вороновиця,28.685,49.107,86
UA,72,Мала Данилівка,36.164,50.06,50
UA,211,Млинів,25.612,50.514,86
UA,626,Городок,26.58,49.166,253
UA,626,Семенівка,32.59,52.172,363
UA,751,Троїцьке,38.304,49.908,303
UA,901,Середина-Буда,34.035,52.186,211
UA,626,Бобровиця,31.384,50.75,176
UA,211,Нова Водолага,35.87,49.721,103
UA,123,Білозерка,32.44,46.627,72
UA,211,Арбузинка,31.314,47.906,86
UA,123,Розсошенці,34.503,49.54,50
UA,86,Мамаївці,25.829,48.351,60
UA,253,Почаїв,25.508,50.004,103
UA,435,Казанка,32.824,47.837,176
UA,211,Хорошів,28.444,50.597,147
UA,103,Ходорів,24.31,49.406,86
UA,363,Веселинове,31.237,47.356,176
UA,626,Радомишль,29.242,50.493,176
UA,211,Талалаївка,33.141,50.837,176
UA,363,Велика Білозерка,34.704,47.274,147
UA,253,Брацлав,28.947,48.818,103
UA,303,Перечин,22.475,48.739,103
UA,626,Нові Санжари,34.315,49.336,176
UA,147,Кам'янка-Дніпровська,34.422,47.478,72
UA,435,Баранівка,27.665,50.296,147
UA,103,Шабо,30.38,46.126,50
UA,147,Узин,30.424,49.82,103
UA,147,Хоростків,25.916,49.208,123
UA,751,Овруч,28.806,51.325,303
UA,211,Старокозаче,29.982,46.338,147
UA,435,Новий Розділ,24.128,49.471,211
UA,303,Буринь,33.825,51.196,123
UA,86,Миколаївка,37.77,48.851,72
UA,253,Варва,32.725,50.496,176
UA,176,Іларіонове,35.275,48.406,147
UA,147,Цумань,25.883,50.834,72
UA,435,Любомль,24.034,51.224,253
UA,522,Лохвиця,33.263,50.36,253
UA,86,Дачне,30.549,46.579,50
UA,103,Ланчин,24.752,48.548,72
UA,435,Золочів,35.97,50.278,123
UA,211,Клевань,26.004,50.748,147
UA,211,Делятин,24.609,48.53,72
UA,363,Вилкове,29.592,45.4,211
UA,253,Сосниця,32.499,51.524,147
UA,253,Мостиська,23.153,49.794,147
UA,626,Кирилівка,35.346,46.366,211
UA,253,Коростишів,29.06,50.319,176
UA,147,Брошнів-Осада,24.19,48.996,86
UA,253,Брусилів,29.525,50.286,176
UA,363,Згурівка,31.782,50.497,176
UA,147,Вашківці,25.506,48.379,60
UA,176,Вільшани,35.884,50.052,72
UA,103,Маяки,30.272,46.414,50
UA,363,Широке,33.266,47.688,211
UA,363,Гуляйполе,36.268,47.662,147
UA,253,Смоліне,31.296,48.599,176
UA,123,Рожнів,25.229,48.364,72
UA,211,Приазовське,35.639,46.736,176
UA,211,Велика Димерка,30.908,50.592,86
UA,363,Красноріченське,38.208,49.214,123
UA,522,Чигирин,32.652,49.075,253
UA,751,Любешів,25.501,51.762,253
UA,751,Березівка,30.917,47.201,363
UA,363,Курахове,37.276,47.988,123
UA,123,Велика Знам'янка,34.355,47.434,50
UA,211,Зборів,25.145,49.662,147
UA,363,Ланівці,26.088,49.867,211
UA,147,Іваничі,24.358,50.639,103
UA,363,Тетіїв,29.679,49.37,253
UA,522,Городня,31.597,51.892,363
UA,751,Жашків,30.113,49.241,363
UA,86,Червоногригорівка,34.53,47.627,50
UA,147,Новоселиця,26.265,48.222,147
UA,435,Мерефа,36.056,49.814,176
UA,72,Мирноград,37.272,48.294,50
UA,86,Джолман,34.199,44.886,72
UA,176,Іслям-Терек,35.204,45.222,147
UA,1081,Червоноград,24.228,50.387,435
UA,363,Сорокине,39.745,48.294,176
UA,123,Хрестівка,38.361,48.146,72
UA,103,Катеринівка,39.181,48.554,72
UA,522,Яни Капу,33.793,45.955,363
UA,363,Подільськ,29.537,47.748,253
UA,123,Олександрійське,32.987,48.601,50
UA,103,Кубей,28.744,45.793,50
UA,253,Кальміуське,38.075,47.669,176
UA,363,Чистякове,38.627,48.036,147
UA,626,Хрустальний,38.924,48.137,211
UA,211,Петрово-Красносілля,38.887,48.298,86
UA,176,Тепле,39.563,48.31,50
UA,435,Довжанськ,39.656,48.075,303
UA,123,Обухівка,34.861,48.544,103
UA,253,Кам'янське,34.609,48.506,211
UA,176,Білозір'я,31.879,49.305,72
UA,253,Благовіщенське,30.233,48.329,211
UA,123,Горішні Плавні,33.622,49.027,103
UA,123,Винники,24.137,49.815,72
UA,211,Селидове,37.299,48.146,103
UA,522,Херсон,32.612,46.656,363
UA,123,Кадіївка,38.646,48.562,103
UA,60,Руська Лозова,36.281,50.141,60
UA,72,Руська Поляна,31.919,49.415,60
UA,626,Новий Буг,32.508,47.691,363
UA,522,Солоне,34.872,48.2,211
UA,147,Колочава,23.725,48.427,123
UA,103,Олешки,32.722,46.619,72
UA,123,Новогродівка,37.332,48.208,50
UA,363,Снятин,25.572,48.448,211
UA,86,Іза,23.328,48.214,50
UA,1081,Лозова,36.312,48.888,363
UA,123,Харцизьк,38.144,48.041,103
UA,303,Тячів,23.572,48.014,123
UA,303,Турійськ,24.529,51.089,123
UA,176,Старий Крим,35.088,45.029,147
UA,253,Гребінка,32.437,50.118,103
UA,253,Боярка,30.293,50.328,103
UA,147,Нова Борова,28.636,50.692,60
UA,435,Новоград-Волинський,27.624,50.59,435
UA,176,Городище,31.456,49.289,123
UA,72,Требухів,30.896,50.483,50
UA,363,Гоща,26.677,50.599,211
UA,123,Білозерське,37.058,48.536,50
UA,147,Озерне,28.676,45.406,103
UA,363,Ялта,34.158,44.501,363
UA,522,Вільногірськ,34.022,48.481,211
UA,1556,Джанкой,34.393,45.711,626
UA,522,Жмеринка,28.106,49.04,211
UA,363,Новомосковськ,35.222,48.634,176
UA,435,Бородянка,29.917,50.645,176
UA,363,Новомиргород,31.643,48.792,176
UA,253,Рава-Руська,23.626,50.227,147
UA,253,Косів,25.088,48.318,147
UA,303,Шацьк,23.931,51.498,211
UA,123,Завалля,30.015,48.21,50
UA,123,Глеваха,30.307,50.266,50
UA,253,Покров,34.079,47.658,176
UA,363,Саврань,30.084,48.13,176
UA,522,Фастів,29.914,50.078,176
UA,86,Острог,26.516,50.327,60
UA,211,Кегичівка,35.758,49.287,103
UA,60,Тисмениця,24.849,48.901,60
UA,176,Моспине,38.063,47.879,60
UA,303,Первомайське,33.857,45.716,176
UA,211,Кремінна,38.217,49.047,103
UA,147,Городенка,25.496,48.671,123
UA,123,Мар'їнка,37.513,47.94,50
UA,303,Погребище,29.266,49.488,253
UA,435,Дубровиця,26.573,51.57,176
UA,123,Есхар,36.591,49.797,50
UA,60,Ворожба,34.227,51.174,50
UA,363,Путивль,33.869,51.335,253
UA,751,Феодосія,35.38,45.046,522
UA,211,Комишуваха,35.523,47.716,147
UA,147,Борислав,23.422,49.286,60
UA,176,Борова,30.106,50.176,103
UA,211,Віліне,33.669,44.848,123
UA,751,Прилуки,32.39,50.588,363
UA,435,Турка,23.023,49.156,176
UA,522,Первомайський,36.218,49.378,363
UA,176,Стара Синява,27.622,49.597,176
UA,211,Тарутине,29.148,46.188,123
UA,363,Літин,28.083,49.325,176
UA,103,Миколаїв,23.983,49.525,86
UA,303,Ананьїв,29.995,47.715,123
UA,363,Окни,29.461,47.539,176
UA,211,Маневичі,25.538,51.293,147
UA,253,Пулини,28.265,50.467,123
UA,303,Васильківка,36.026,48.207,176
UA,435,Оріхів,35.782,47.567,253
UA,176,Новодністровськ,27.441,48.577,176
UA,123,Тернівка,36.082,48.522,103
UA,435,Чорноморське,32.704,45.503,435
UA,23952,Київ,30.547,50.449,9627
UA,211,Велика Олександрівка,33.3,47.322,211
UA,60,Балабине,35.219,47.742,50
UA,626,Горностаївка,33.732,47.007,176
UA,211,Олександрівка,31.273,47.694,86
UA,211,Іловайськ,38.198,47.926,72
UA,60,Королево,23.133,48.153,50
UA,103,Антонівка,32.73,46.679,50
UA,72,Івано-Франкове,23.727,49.918,72
UA,147,Великі Ком'яти,22.977,48.237,72
UA,522,Золотоноша,32.047,49.667,176
UA,303,Володимир-Волинський,24.321,50.852,103
UA,60,Буча,30.227,50.552,50
UA,176,Білики,34.27,49.251,72
UA,253,Доманівка,30.983,47.63,176
UA,303,Чаплинка,33.535,46.363,123
UA,303,Велика Багачка,33.726,49.791,123
UA,363,Сторожинець,25.711,48.161,147
UA,123,Тлумач,24.993,48.86,86
UA,211,Космач,24.821,48.338,147
UA,522,Ічня,32.382,50.856,211
UA,522,Краснопілля,35.269,50.773,253
UA,1867,Керч,36.473,45.338,1081
UA,363,Крижопіль,28.868,48.386,211
UA,147,Велика Добронь,22.388,48.42,86
UA,1556,Черкаси,32.053,49.423,1081
UA,123,Кирнасівка,28.978,48.592,86
UA,72,Билбасівка,37.5,48.84,50
UA,751,Міжгір'я,23.523,48.522,303
UA,751,Кропивницький,32.255,48.516,626
UA,522,Дунаївці,26.854,48.889,176
UA,303,Березне,26.739,50.997,123
UA,901,Новоукраїнка,31.525,48.32,303
UA,86,Великі Лучки,22.561,48.419,86
UA,363,Семенівка,33.185,49.602,147
UA,435,Кобеляки,34.197,49.148,253
UA,2240,Чернігів,31.282,51.504,901
UA,253,Клішківці,26.264,48.424,103
UA,86,Червона Слобода,32.147,49.382,60
UA,123,Єнакієве,38.209,48.232,103
UA,211,Рахни-Лісові,28.481,48.787,176
UA,303,Великий Березний,22.459,48.893,123
UA,211,Моршин,23.869,49.155,72
UA,72,Стебник,23.541,49.306,50
UA,176,Жидачів,24.14,49.384,72
UA,363,Перемишляни,24.559,49.67,147
UA,86,Брюховичі,23.952,49.903,50
UA,176,Зуя,34.317,45.054,123
UA,176,Рожище,25.267,50.913,103
UA,363,Нова Маячка,33.227,46.603,147
UA,303,Полонне,27.507,50.123,253
UA,626,Десна,30.759,50.93,176
UA,522,Глобине,33.261,49.389,211
UA,435,Пирятин,32.51,50.241,253
UA,751,Вознесенськ,31.324,47.571,363
UA,901,Дрогобич,23.512,49.351,435
UA,303,Ладижин,29.237,48.687,123
UA,435,Докучаєвськ,37.679,47.757,147
UA,303,Добропілля,37.085,48.47,123
UA,1081,Куп'янськ,37.613,49.71,435
UA,363,Новопсков,39.113,49.532,253
UA,435,Синельникове,35.516,48.321,211
UA,147,Світловодськ,33.221,49.049,103
UA,363,Нетішин,26.64,50.339,253
UA,303,Самбір,23.205,49.518,176
UA,1556,Мелітополь,35.361,46.849,751
UA,303,Чечельник,29.35,48.214,123
UA,751,Очаків,31.543,46.619,253
UA,211,Люботин,35.934,49.948,103
UA,123,Радивилів,25.26,50.127,50
UA,1867,Маріуполь,37.569,47.125,751
UA,103,Сокільники,23.978,49.78,50
UA,522,Балта,29.624,47.935,147
UA,253,Макіївка,37.96,48.054,86
UA,626,Лиман,37.805,48.988,147
UA,363,Біляївка,30.213,46.48,211
UA,176,Старий Самбір,23.004,49.444,86
UA,253,Вугледар,37.248,47.78,176
UA,86,Ільниця,23.074,48.357,50
UA,147,Озерне,28.737,50.18,60
UA,363,Черняхів,28.664,50.453,147
UA,123,Романківці,27.214,48.483,86
UA,435,Верховина,24.819,48.154,147
UA,211,Корсунь-Шевченківський,31.271,49.419,211
UA,72,Зимна Вода,23.883,49.825,60
UA,522,Щолкіне,35.814,45.427,303
UA,103,Калини,23.876,48.146,50
UA,253,Берегомет,25.332,48.175,147
UA,626,Дубно,25.745,50.4,211
UA,123,Нижньогірський,34.741,45.447,123
UA,1081,Житомир,28.671,50.265,901
UA,901,Рівне,26.244,50.617,901
UA,123,Лисичанськ,38.431,48.9,50
UA,363,Гайсин,29.387,48.811,363
UA,626,Луцьк,25.34,50.747,522
UA,1556,Полтава,34.539,49.597,751
UA,86,Петропавлівська Борщагівка,30.346,50.435,50
UA,103,Баришівка,31.318,50.356,86
UA,363,Бахчисарай,33.863,44.751,176
UA,211,Нова Прага,32.895,48.56,123
UA,211,Побузьке,30.599,48.165,147
UA,303,Тараща,30.501,49.561,86
UA,303,Ставище,30.194,49.391,123
UA,363,Переяслав-Хмельницький,31.449,50.074,303
UA,211,Рокитне,30.473,49.684,176
UA,303,Ржищів,31.052,49.965,123
UA,123,Олександрівка,32.243,48.96,86
UA,176,Каховка,33.49,46.807,72
UA,176,Печеніги,36.93,49.87,103
UA,60,Білки,23.138,48.323,50
UA,253,Свалява,22.994,48.545,123
UA,435,Берегове,22.638,48.202,211
UA,147,Виноградів,23.031,48.143,147
UA,363,Кагарлик,30.824,49.855,176
UA,363,Андрушівка,29.022,50.024,176
UA,86,Миронівський,38.275,48.464,50
UA,2688,Чернівці,25.938,48.303,1081
UA,176,Торецьк,37.863,48.392,123
UA,123,Заводське,33.388,50.4,50
UA,211,Тростянець,29.225,48.511,147
UA,176,Підгородне,35.095,48.574,72
UA,253,Зимогір'я,38.93,48.589,123
UA,176,Пустомити,23.905,49.718,86
UA,253,Василівка,35.277,47.434,123
UA,626,Костопіль,26.444,50.879,253
UA,363,Барвінкове,37.02,48.906,253
UA,86,Зугрес,38.265,48.018,72
UA,123,Тересва,23.694,48.001,72
UA,147,Донське,37.535,47.515,50
UA,211,Фонтанка,30.859,46.564,86
UA,626,Золочів,24.897,49.806,253
UA,211,Злинка,31.539,48.486,123
UA,211,Гельмязів,31.835,49.823,147
UA,103,Мала Білозерка,34.939,47.246,103
UA,901,Старобільськ,38.921,49.278,303
UA,211,Заставна,25.844,48.521,86
UA,626,Шаргород,28.076,48.756,211
UA,211,Піщанка,28.888,48.206,147
UA,72,Чорноморське,30.941,46.586,50
UA,103,Княжичі,30.781,50.461,50
UA,211,Верхній Рогачик,34.35,47.242,147
UA,123,Пісочин,36.106,49.956,72
UA,751,Ізмаїл,28.841,45.353,435
UA,123,Новотроїцьке,37.574,47.716,50
UA,72,Жданівка,38.259,48.144,50
UA,211,Романів,27.935,50.152,176
UA,363,Іршанськ,28.721,50.751,147
UA,303,Долина,24.001,48.973,176
UA,176,Липовець,29.055,49.224,103
UA,303,Збараж,25.77,49.668,103
UA,123,Ладан,32.583,50.521,72
UA,211,Буськ,24.612,49.968,147
UA,253,Карлівка,35.124,49.454,176
UA,123,Шахтарськ,38.455,48.06,86
UA,103,Українка,30.743,50.145,50
UA,303,Зіньків,34.364,50.208,211
UA,147,Красногорівка,37.498,48.01,103
UA,363,Рахів,24.214,48.055,147
UA,253,Бершадь,29.53,48.371,176
UA,1081,Яготин,31.78,50.259,211
UA,363,Білопілля,34.302,51.152,303
UA,253,Бахмач,32.831,51.18,176
UA,626,Борзна,32.427,51.252,176
UA,60,Чорнухине,38.513,48.325,50
UA,123,Великий Бичків,24.009,47.973,60
UA,303,Березнегувате,32.851,47.308,176
UA,253,Краснопавлівка,36.323,49.136,176
UA,253,Віньківці,27.234,49.034,176
UA,123,Біленьке,37.633,48.766,50
UA,435,Велика Лепетиха,33.943,47.171,253
UA,253,Теофіполь,26.413,49.84,176
UA,147,Нововоронцовка,33.916,47.497,147
UA,435,Єланець,31.855,47.698,176
UA,176,Криве Озеро,30.335,47.943,103
UA,303,Лисянка,30.827,49.257,123
UA,303,Сахновщина,35.874,49.151,211
UA,176,Отинія,24.855,48.737,123
UA,253,Магдалинівка,34.913,48.917,211
UA,176,Добровеличківка,31.175,48.385,147
UA,123,Чинадійово,22.824,48.495,50
UA,147,Чорнобай,32.329,49.67,147
UA,211,Новоархангельськ,30.821,48.66,176
UA,147,Браїлів,28.157,49.106,60
UA,435,Диканька,34.533,49.822,176
UA,253,Муровані Курилівці,27.524,48.719,123
UA,147,Високий,36.122,49.888,50
UA,522,Котельва,34.758,50.068,211
UA,253,Гребінки,30.178,49.956,123
UA,147,Гольмівський,38.075,48.404,60
UA,363,Макарів,29.812,50.459,176
UA,253,Чоп,22.21,48.431,86
UA,626,Ясіня,24.351,48.264,176
UA,363,Стара Вижівка,24.433,51.439,176
UA,303,Липова Долина,33.791,50.563,147
UA,363,Ріпки,31.091,51.803,211
UA,751,Кам'янець-Подільський,26.58,48.683,363
UA,253,Опішня,34.609,49.964,103
UA,176,Саки,33.588,45.134,147
UA,363,Долинська,32.764,48.113,303
UA,176,Соснівка,24.251,50.292,72
UA,60,Вінницькі Хутори,28.548,49.207,50
UA,435,Калинівка,28.527,49.455,176
UA,363,Сквира,29.66,49.733,211
UA,253,Нижня Кринка,38.176,48.117,60
UA,72,Плугатар,39.738,49.232,50
UA,72,Городець,28.241,51.372,50
UA,60,Китайгород,34.443,48.9,50
UA,86,Садове,30.21,46.235,50
UA,123,Кононівка,39.627,49.331,50
UA,123,Конюшки,24.597,49.321,50
UA,72,Бикоза,30.177,46.189,50
UA,72,Зелеківка,39.844,49.193,50
UA,72,Ленківці,26.757,48.506,50
UA,86,Парневе,39.403,49.209,50
UA,253,Городище,39.65,49.051,103
UA,60,Рудка,34.372,48.891,50
UA,103,Кованка,28.093,51.387,50
UA,147,Литвинівка,39.445,49.312,72
UA,72,Вітрогон,39.742,49.147,50
UA,103,Трибухівці,25.484,49.04,60
UA,211,Євсуг,39.304,49.211,123
UA,72,Новолимарівка,39.601,49.276,50
UA,147,Новоолександрівка,39.28,49.133,60
UA,103,Андріївка,30.083,46.22,86
UA,123,Сирниця,28.16,51.431,50
UA,86,Возничі,28.379,51.515,50
UA,72,Хроли,36.365,49.9,50
UA,176,Бараниківка,39.847,49.156,123
UA,363,Лучанки,28.45,51.548,123
UA,60,Щербинівка,34.33,48.941,50
UA,103,Усове,28.126,51.331,50
UA,303,Словечне,28.355,51.38,211
UA,123,Новодеркул,39.622,49.129,50
UA,86,Листвин,28.35,51.337,50
UA,72,Семикозівка,39.561,49.245,50
UA,72,Велика Городниця,25.467,50.652,50
UA,72,Нижньобараниківка,39.828,49.092,50
UA,86,Войниха,33.067,49.962,50
UA,176,Заболоття,24.245,51.633,123
UA,103,Гута,24.129,51.627,60
UA,123,Рижівка,34.249,51.251,60
UA,72,Ободи,34.63,51.219,50
UA,60,Іскрисківщина,34.393,51.237,60
UA,123,Річки,34.495,51.117,103
UA,211,Павлівка,34.511,51.211,72
UA,86,Коршачина,34.492,51.016,50
UA,86,Іванівка,36.634,48.098,50
UA,211,Шрамківка,32.122,50.142,147
UA,123,Щасливе,31.472,46.902,50
UA,147,Златоустівка,37.325,47.488,86
UA,103,Військове,35.166,48.171,72
UA,60,Ясинівка,37.947,48.134,50
UA,103,Сушки,33.928,49.106,50
UA,86,Заланів,24.54,49.462,50
UA,60,Сираї,31.042,50.846,50
UA,72,Вотилівка,30.512,49.286,50
UA,86,Шевченкове,35.927,49.207,50
UA,123,Устилуг,24.156,50.86,86
UA,60,Сторониче,26.595,50.227,50
UA,123,Першотравневе,34.635,46.778,60
UA,72,Обозне,39.309,48.733,50
UA,86,Мелені,28.841,50.827,50
UA,103,Огіївці,27.294,49.834,50
UA,86,Калинове,37.466,47.457,50
UA,60,Терешківка,31.9,50.706,50
UA,60,Дігтів,24.221,50.758,50
UA,60,Березна,27.846,49.561,50
UA,103,Голубиця,25.166,49.92,72
UA,176,Новопавлівка,36.458,46.828,50
UA,72,Кащенці,26.3,50.033,60
UA,123,Бродниця,26.314,51.764,50
UA,72,Бюйтен,33.167,45.698,50
UA,60,Ступичне,31.175,48.886,50
UA,86,Рогова,30.513,48.577,50
UA,86,Богданівка,33.332,51.897,50
UA,147,Мокра Калигірка,31.218,48.842,123
UA,72,Грузевиця,26.826,49.476,50
UA,176,Гнатків,28.492,48.449,60
UA,253,Калита,31.024,50.751,123
UA,72,Жовтокам'янка,33.453,45.271,50
UA,72,Картамиш,36.538,49.279,50
UA,86,Моринці,31.004,49.253,60
UA,72,Кісниця,28.73,48.428,50
UA,86,Весела Долина,29.319,46.235,60
UA,147,Петрівка,31.147,47,60
UA,60,Виноградне,31.222,46.697,50
UA,253,Городок,29.452,50.593,103
UA,60,Босівка,30.628,49.23,50
UA,60,Павлівка,24.463,50.62,50
UA,60,Виноградне,35.848,45.293,50
UA,72,Мощенка,31.738,52.031,60
